t_rel,epoch,packet_bytes,sim_time,pos_x,pos_y,pos_z,att_x,att_y,att_z,att_w,vel_x,vel_y,vel_z,gyro_pitch,gyro_roll,gyro_yaw,in_throttle,in_yaw,in_pitch,in_roll,batt_voltage,batt_pct,armed,motor_0,motor_1,motor_2,motor_3
-0.34354,1780552214.74727,97,1.019999384880066,606.0999755859375,1.7123873233795166,523.4000854492188,-0.0007584347622469068,0.26043543219566345,0.00016960194625426084,-0.965490996837616,5.1873324991902336e-05,-2.6479363441467285e-05,-0.00011089193867519498,-0.19458915293216705,0.012496384792029858,-0.04970533028244972,-0.8983879089355469,0.005378972738981247,0.0014684282941743731,-0.003426333423703909,1.0,0.0,1,1194.4605712890625,1194.4605712890625,1194.4605712890625,1194.4605712890625
-0.341151,1780552214.749659,97,1.0299993753433228,606.0999755859375,1.712387204170227,523.4000854492188,-0.0007576378411613405,0.26042410731315613,0.00017123522411566228,-0.9654940366744995,4.3038126023020595e-05,-2.6345252990722656e-05,-0.00014071908663026989,-0.2096962183713913,0.023452194407582283,0.024213779717683792,-0.8983879089355469,0.005378972738981247,0.0014684282941743731,-0.003426333423703909,1.0,0.0,1,1194.4605712890625,1194.4605712890625,1194.4605712890625,1194.4605712890625
-0.341095,1780552214.749715,97,1.0399993658065796,606.0999755859375,1.7123870849609375,523.4000854492188,-0.0007559225196018815,0.26041311025619507,0.00017222226597368717,-0.9654970169067383,4.118249489692971e-05,-2.504885196685791e-05,-0.00014533486682921648,-0.2149048149585724,0.030255276709794998,0.02126506343483925,-0.9960918426513672,0.005378972738981247,0.0014684282941743731,-0.003426333423703909,1.0,0.0,1,1194.4605712890625,1194.4605712890625,1194.4605712890625,1194.4605712890625
-0.341063,1780552214.749747,97,1.0499993562698364,606.0999755859375,1.712386965751648,523.4000854492188,-0.0007540578953921795,0.2604021728038788,0.0001730752846924588,-0.965499997138977,4.073396485182457e-05,-2.4780631065368652e-05,-0.00014613605162594467,-0.21571551263332367,0.031599316745996475,0.02076701447367668,-0.9960918426513672,0.005378972738981247,0.0014684282941743731,-0.003426333423703909,1.0,0.0,1,1194.4605712890625,1194.4605712890625,1194.4605712890625,1194.4605712890625
-0.341035,1780552214.749775,97,1.0599993467330933,606.0999755859375,1.7123868465423584,523.4000854492188,-0.0007521697552874684,0.2603912353515625,0.00017390323046129197,-0.965502917766571,4.064307358930819e-05,-2.4743378162384033e-05,-0.00014627387281507254,-0.21584652364253998,0.031844645738601685,0.020683856680989265,-0.9960918426513672,0.005378972738981247,0.0014684282941743731,-0.003426333423703909,1.0,0.0,1,1194.4605712890625,1194.4605712890625,1194.4605712890625,1194.4605712890625
-0.341007,1780552214.749804,97,1.06999933719635,606.0999755859375,1.7123867273330688,523.4000854492188,-0.0007502770167775452,0.2603802978992462,0.00017472713079769164,-0.965505838394165,4.062842344865203e-05,-2.473592758178711e-05,-0.0001463037624489516,-0.2158767282962799,0.03188292309641838,0.020676055923104286,-0.9960918426513672,0.005378972738981247,0.0014684282941743731,-0.003426333423703909,1.0,0.0,1,1194.4605712890625,1194.4605712890625,1194.4605712890625,1194.4605712890625
-0.340978,1780552214.749832,97,1.079999327659607,606.0999755859375,1.7123866081237793,523.4000854492188,-0.0007483832305297256,0.2603693902492523,0.00017555069644004107,-0.9655088782310486,4.0626990085002035e-05,-2.473592758178711e-05,-0.0001463181833969429,-0.21589472889900208,0.03188815340399742,0.02068251557648182,-0.9960918426513672,0.005378972738981247,0.0014684282941743731,-0.003426333423703909,1.0,0.0,1,1194.4605712890625,1194.4605712890625,1194.4605712890625,1194.4605712890625
-0.340947,1780552214.749863,97,1.0899993181228638,606.0999755859375,1.7123868465423584,523.4000854492188,-0.0007445444352924824,0.2603568732738495,0.0001608920720173046,-0.9655121564865112,-7.371322135441005e-05,2.1345913410186768e-05,-0.00019709770276676863,-0.19009217619895935,0.23006480932235718,0.03508339822292328,-0.9960918426513672,0.004400977864861488,0.0014684282941743731,-0.003426333423703909,1.0,0.0,1,1194.4605712890625,1194.4605712890625,1194.4605712890625,1194.4605712890625
-0.340917,1780552214.749893,97,1.0999993085861206,606.0999755859375,1.7123878002166748,523.4000854492188,-0.0007643966237083077,0.26035168766975403,0.00016715590027160943,-0.9655136466026306,6.0353369917720556e-05,-5.605071783065796e-05,-2.3075641365721822e-05,-0.0783635750412941,-0.08201105147600174,-0.006397834047675133,-0.9960918426513672,0.004400977864861488,0.0014684282941743731,-0.003426333423703909,1.0,0.0,1,1194.4605712890625,1194.4605712890625,1194.4605712890625,1194.4605712890625
-0.340888,1780552214.749923,97,1.1099992990493774,606.0999755859375,1.7123876810073853,523.4000854492188,-0.0007665404118597507,0.26034167408943176,0.00017007622227538377,-0.965516209602356,4.7288373025367036e-05,-2.9399991035461426e-05,-0.0001218529578181915,-0.18987026810646057,0.005457218736410141,0.018998702988028526,-0.9960918426513672,0.004400977864861488,0.0014684282941743731,-0.003426333423703909,1.0,0.0,1,1194.4605712890625,1194.4605712890625,1194.4605712890625,1194.4605712890625
-0.340858,1780552214.749952,97,1.1199992895126343,606.0999755859375,1.7123874425888062,523.4000854492188,-0.0007655887166038156,0.2603326737880707,0.00017147469043266028,-0.9655187726020813,4.418623211677186e-05,-2.602487802505493e-05,-0.00013671199849341065,-0.20853976905345917,0.02322820946574211,0.010293202474713326,-0.9960918426513672,0.003422982757911086,0.0014684282941743731,-0.003426333423703909,1.0,0.0,1,1194.4605712890625,1194.4605712890625,1194.4605712890625,1194.4605712890625
-0.340831,1780552214.749979,97,1.1299992799758911,606.0999755859375,1.7123873233795166,523.4000854492188,-0.0007643596618436277,0.26032593846321106,0.0001726711925584823,-0.9655205607414246,4.5652348489966244e-05,-2.572685480117798e-05,-0.00013324199244379997,-0.20831698179244995,0.023036513477563858,-0.0037355278618633747,-0.9960918426513672,0.003422982757911086,0.0014684282941743731,-0.003426333423703909,1.0,0.0,1,1194.4605712890625,1194.4605712890625,1194.4605712890625,1194.4605712890625
-0.340804,1780552214.750006,97,1.139999270439148,606.0999755859375,1.712387204170227,523.4000854492188,-0.0007632368360646069,0.26031914353370667,0.0001739601430017501,-0.965522289276123,4.595009522745386e-05,-2.590566873550415e-05,-0.00013270304771140218,-0.2077593356370926,0.022117050364613533,-0.003356387373059988,-0.9960918426513672,0.0004889973206445575,0.0014684282941743731,-0.003426333423703909,1.0,0.0,1,1194.4605712890625,1194.4605712890625,1194.4605712890625,1194.4605712890625
-0.340774,1780552214.750036,97,1.1499992609024048,606.0999755859375,1.7123870849609375,523.4000854492188,-0.0007626822334714234,0.2603188157081604,0.00017547696188557893,-0.9655224084854126,5.244005296844989e-05,-2.6732683181762695e-05,-0.00011543282744241878,-0.19888462126255035,0.012366199865937233,-0.0411548987030983,-0.9960918426513672,0.0004889973206445575,0.0014684282941743731,-0.003426333423703909,1.0,0.0,1,1194.4605712890625,1194.4605712890625,1194.4605712890625,1194.4605712890625
-0.340745,1780552214.750065,97,1.1599992513656616,606.0999755859375,1.712386965751648,523.4000854492188,-0.0007626560982316732,0.2603182792663574,0.00017742079216986895,-0.9655225276947021,5.3768279030919075e-05,-2.755969762802124e-05,-0.0001127308642026037,-0.195989191532135,0.008023661561310291,-0.0393374003469944,-0.9960918426513672,-0.015158924274146557,0.0014684282941743731,-0.003426333423703909,1.0,0.0,1,1194.4605712890625,1194.4605712890625,1194.4605712890625,1194.4605712890625
-0.340716,1780552214.750094,97,1.1699992418289185,606.0999755859375,1.7123868465423584,523.4000854492188,-0.0007656820234842598,0.2603522837162018,0.0001805708889150992,-0.9655133485794067,8.85728804860264e-05,-3.197789192199707e-05,-1.988520671147853e-05,-0.14821316301822662,-0.04426588863134384,-0.2425602227449417,-0.9960918426513672,-0.018092909827828407,0.0014684282941743731,-0.003426333423703909,1.0,0.0,1,1194.4605712890625,1194.4605712890625,1194.4605712890625,1194.4605712890625
-0.340687,1780552214.750124,97,1.1799992322921753,606.0999755859375,1.7123867273330688,523.4000854492188,-0.0007721094880253077,0.26039183139801025,0.0001862231729319319,-0.9655027985572815,0.00010224618745269254,-3.7223100662231445e-05,1.219758178194752e-05,-0.12365924566984177,-0.07733169198036194,-0.27152755856513977,-0.9960918426513672,-0.018092909827828407,0.0014684282941743731,-0.003426333423703909,1.0,0.0,1,1194.4605712890625,1194.4605712890625,1194.4605712890625,1194.4605712890625
-0.340656,1780552214.750154,97,1.1899992227554321,606.0999755859375,1.7123874425888062,523.4000854492188,-0.0007734746905043721,0.2604289650917053,0.00017506156291346997,-0.9654927849769592,3.1462426704820246e-05,-1.5944242477416992e-05,-3.6835896025877446e-05,-0.135419100522995,0.05395543575286865,-0.2730349600315094,-0.9960918426513672,-0.019070906564593315,0.0014684282941743731,-0.003426333423703909,1.0,0.0,1,1194.4605712890625,1194.4605712890625,1194.4605712890625,1194.4605712890625
-0.340626,1780552214.750184,97,1.199999213218689,606.0999755859375,1.7123881578445435,523.4000854492188,-0.000773706182371825,0.2604692280292511,0.0001607755257282406,-0.9654818177223206,2.014562051044777e-05,-1.0922551155090332e-05,-3.990255208918825e-05,-0.13598909974098206,0.0782543495297432,-0.29469242691993713,-0.9960918426513672,-0.019070906564593315,0.0014684282941743731,-0.003426333423703909,1.0,0.0,1,1194.4605712890625,1194.4605712890625,1194.4605712890625,1194.4605712890625
-0.336169,1780552214.754642,97,1.2099992036819458,606.0999755859375,1.7123897075653076,523.4000854492188,-0.0007590368622913957,0.2605108618736267,0.00016889114340301603,-0.9654706120491028,0.0001579336530994624,-5.938112735748291e-05,-5.3908228437649086e-05,-0.2556236982345581,-0.10063773393630981,-0.3031172752380371,-0.9960918426513672,-0.01711491495370865,0.0014684282941743731,-0.003426333423703909,1.0,0.0,1,1194.4605712890625,1194.4605712890625,1194.4605712890625,1194.4605712890625
-0.319337,1780552214.771473,97,1.2199991941452026,606.0999755859375,1.7123864889144897,523.4000854492188,-0.0007639696705155075,0.2605479955673218,0.00017677954747341573,-0.9654605984687805,0.0001128436197177507,-0.00034518539905548096,2.952412614831701e-06,-0.13922348618507385,-0.0898750051856041,-0.25662174820899963,-0.9960918426513672,-0.0014669930096715689,0.0014684282941743731,-0.003426333423703909,1.0,0.0,1,1194.4605712890625,1194.4605712890625,1194.4605712890625,1194.4605712890625
-0.318354,1780552214.772456,97,1.2299991846084595,606.0999755859375,1.7123862504959106,523.4000854492188,-0.0007678658002987504,0.26055026054382324,0.00018234449089504778,-0.9654600024223328,6.989394023548812e-05,-3.4593045711517334e-05,-8.251842518802732e-05,-0.1717478483915329,-0.03224944695830345,-0.051118165254592896,-0.9960918426513672,-0.0014669930096715689,0.0014684282941743731,-0.003426333423703909,1.0,0.0,1,1194.4605712890625,1194.4605712890625,1194.4605712890625,1194.4605712890625
-0.3027,1780552214.78811,97,1.2399991750717163,606.0999755859375,1.7123868465423584,523.4000854492188,-0.0007631636108271778,0.2605516016483307,0.00016776399570517242,-0.9654596447944641,-1.203035208163783e-05,-7.048249244689941e-06,-0.00015015769167803228,-0.2020581066608429,0.13182301819324493,-0.06571438163518906,-0.9960918426513672,-0.0014669930096715689,0.0014684282941743731,-0.003426333423703909,1.0,0.0,1,1194.4605712890625,1194.4605712890625,1194.4605712890625,1194.4605712890625
-0.301704,1780552214.789106,97,1.2499991655349731,606.0999755859375,1.7123867273330688,523.4000854492188,-0.0007626198348589242,0.26055610179901123,0.00016704278823453933,-0.9654584527015686,4.581852408591658e-05,-2.3521482944488525e-05,-0.00010802124597830698,-0.1914578080177307,0.025446519255638123,-0.07168072462081909,-0.9960918426513672,-0.0014669930096715689,0.0014684282941743731,-0.003426333423703909,1.0,0.0,1,1194.4605712890625,1194.4605712890625,1194.4605712890625,1194.4605712890625
-0.286052,1780552214.804758,97,1.25999915599823,606.0999755859375,1.7123866081237793,523.4000854492188,-0.0007632209453731775,0.2605598270893097,0.00016894936561584473,-0.9654574394226074,5.6851262343116105e-05,-2.7902424335479736e-05,-0.00010039494372904301,-0.18809619545936584,0.0026607122272253036,-0.06444810330867767,-0.9960918426513672,-0.0014669930096715689,0.0014684282941743731,-0.003426333423703909,1.0,0.0,1,1194.4605712890625,1194.4605712890625,1194.4605712890625,1194.4605712890625
-0.269544,1780552214.821266,97,1.2699991464614868,606.0999755859375,1.7123864889144897,523.4000854492188,-0.0007640276453457773,0.2605634033679962,0.00017135309462901205,-0.965456485748291,5.895207141293213e-05,-2.872943878173828e-05,-9.900818986352533e-05,-0.18754440546035767,-0.0016237800009548664,-0.06308858096599579,-0.9960918426513672,-0.0004889977863058448,0.0014684282941743731,-0.003426333423703909,1.0,0.0,1,1194.4605712890625,1194.4605712890625,1194.4605712890625,1194.4605712890625
-0.268559,1780552214.822252,97,1.2799991369247437,606.0999755859375,1.7123863697052002,523.4000854492188,-0.0007646890007890761,0.26056480407714844,0.00017378234770148993,-0.9654561281204224,5.721793058910407e-05,-2.863258123397827e-05,-0.0001044782911776565,-0.19038495421409607,0.0007559165242128074,-0.05022504925727844,-0.9960918426513672,-0.0004889977863058448,0.0014684282941743731,-0.003426333423703909,1.0,0.0,1,1194.4605712890625,1194.4605712890625,1194.4605712890625,1194.4605712890625
-0.252579,1780552214.838231,97,1.2899991273880005,606.0999755859375,1.7123862504959106,523.4000854492188,-0.0007651824271306396,0.26056626439094543,0.00017609044152777642,-0.9654557108879089,5.6865570513764396e-05,-2.837926149368286e-05,-0.00010533329623285681,-0.1913423091173172,0.0020264391787350178,-0.05076346918940544,-0.9960918426513672,-0.0004889977863058448,0.0014684282941743731,-0.003426333423703909,1.0,0.0,1,1194.4605712890625,1194.4605712890625,1194.4605712890625,1194.4605712890625
-0.251191,1780552214.839619,97,1.2999991178512573,606.0999755859375,1.712386131286621,523.4000854492188,-0.0007656510570086539,0.2605677545070648,0.0001783769839676097,-0.9654552936553955,5.6792043324094266e-05,-2.8342008590698242e-05,-0.00010547682177275419,-0.19148996472358704,0.0022575510665774345,-0.05084783956408501,-0.9960918426513672,-0.0004889977863058448,0.0014684282941743731,-0.003426333423703909,1.0,0.0,1,1194.4605712890625,1194.4605712890625,1194.4605712890625,1194.4605712890625
-0.235544,1780552214.855266,97,1.3099991083145142,606.0999755859375,1.7123860120773315,523.4000854492188,-0.0007661152631044388,0.2605692446231842,0.00018066042684949934,-0.9654548764228821,5.678109300788492e-05,-2.833455801010132e-05,-0.00010550307342782617,-0.191517174243927,0.002294585108757019,-0.05085672065615654,-0.9960918426513672,-0.0004889977863058448,0.0014684282941743731,-0.003426333423703909,1.0,0.0,1,1194.4605712890625,1194.4605712890625,1194.4605712890625,1194.4605712890625
-0.217256,1780552214.873555,97,1.319999098777771,606.0999755859375,1.712385892868042,523.4000854492188,-0.0007665791781619191,0.2605707347393036,0.0001829442917369306,-0.9654544591903687,5.678530578734353e-05,-2.833455801010132e-05,-0.00010551292507443577,-0.19153186678886414,0.0022928884718567133,-0.05084770917892456,-0.9960918426513672,0.0004889973206445575,0.0014684282941743731,-0.003426333423703909,1.0,0.0,1,1194.4605712890625,1194.4605712890625,1194.4605712890625,1194.4605712890625
-0.217177,1780552214.873634,97,1.3299990892410278,606.0999755859375,1.7123866081237793,523.4000854492188,-0.0007608240121044219,0.2605680823326111,0.00016748961934354156,-0.965455174446106,-1.8893340893555433e-05,-5.155801773071289e-06,-0.00016533616872038692,-0.2114042043685913,0.14529107511043549,-0.0432002954185009,-0.9960918426513672,0.0004889973206445575,0.0014684282941743731,-0.003426333423703909,1.0,0.0,1,1194.4605712890625,1194.4605712890625,1194.4605712890625,1194.4605712890625
-0.187477,1780552214.903333,97,1.3399990797042847,606.0999755859375,1.7123864889144897,523.4000854492188,-0.0007594536291435361,0.2605684995651245,0.00016621159738861024,-0.9654550552368164,4.016716775367968e-05,-2.2195279598236084e-05,-0.00012188243272248656,-0.19977183640003204,0.03598279133439064,-0.048128072172403336,-0.9960918426513672,0.0004889973206445575,0.0014684282941743731,-0.003426333423703909,1.0,0.0,1,1194.4605712890625,1194.4605712890625,1194.4605712890625,1194.4605712890625
-0.18178,1780552214.90903,97,1.3499990701675415,606.0999755859375,1.7123863697052002,523.4000854492188,-0.00075926398858428,0.26056811213493347,0.00016762006271164864,-0.965455174446106,5.14344937982969e-05,-2.668052911758423e-05,-0.00011404707765905187,-0.19627496600151062,0.01266773696988821,-0.04070986062288284,-0.9960918426513672,0.0004889973206445575,0.0014684282941743731,-0.003426333423703909,1.0,0.0,1,1194.4605712890625,1194.4605712890625,1194.4605712890625,1194.4605712890625
-0.18077,1780552214.91004,97,1.3599990606307983,606.0999755859375,1.7123862504959106,523.4000854492188,-0.0007592872716486454,0.2605675756931305,0.0001695372338872403,-0.9654552936553955,5.358066118787974e-05,-2.7529895305633545e-05,-0.00011262039333814755,-0.1956978291273117,0.008282490074634552,-0.039324358105659485,-0.9960918426513672,0.0004889973206445575,0.0014684282941743731,-0.003426333423703909,1.0,0.0,1,1194.4605712890625,1194.4605712890625,1194.4605712890625,1194.4605712890625
-0.160097,1780552214.930713,97,1.3699990510940552,606.0999755859375,1.712386131286621,523.4000854492188,-0.0007593499612994492,0.2605670094490051,0.00017155168461613357,-0.9654554724693298,5.39901084266603e-05,-2.7686357498168945e-05,-0.00011235856800340116,-0.1955995410680771,0.007451274432241917,-0.039054278284311295,-0.9960918426513672,0.0004889973206445575,0.0014684282941743731,-0.003426333423703909,1.0,0.0,1,1194.4605712890625,1194.4605712890625,1194.4605712890625,1194.4605712890625
-0.158742,1780552214.932068,97,1.379999041557312,606.0999755859375,1.7123860120773315,523.4000854492188,-0.0007594189955852926,0.2605664134025574,0.0001735850382829085,-0.9654556512832642,5.406994023360312e-05,-2.7723610401153564e-05,-0.00011231951066292822,-0.19559404253959656,0.007294984068721533,-0.038994334638118744,-0.9960918426513672,0.0004889973206445575,0.0014684282941743731,-0.003426333423703909,1.0,0.0,1,1194.4605712890625,1194.4605712890625,1194.4605712890625,1194.4605712890625
-0.157674,1780552214.933136,97,1.3899990320205688,606.0999755859375,1.712385892868042,523.4000854492188,-0.0007594890776090324,0.2605658173561096,0.00017562208813615143,-0.9654558300971985,5.408342622104101e-05,-2.7731060981750488e-05,-0.00011231547978240997,-0.195594921708107,0.007268537767231464,-0.03897862136363983,-0.9960918426513672,0.0004889973206445575,0.0014684282941743731,-0.003426333423703909,1.0,0.0,1,1194.4605712890625,1194.4605712890625,1194.4605712890625,1194.4605712890625
-0.143532,1780552214.947278,97,1.3999990224838257,606.0999755859375,1.7123857736587524,523.4000854492188,-0.0007595609058625996,0.26056522130966187,0.00017766107339411974,-0.9654560089111328,5.409143341239542e-05,-2.7738511562347412e-05,-0.00011232039832975715,-0.19560536742210388,0.007257972378283739,-0.03897206112742424,-0.9960918426513672,0.0004889973206445575,0.0014684282941743731,-0.003426333423703909,1.0,0.0,1,1194.4605712890625,1194.4605712890625,1194.4605712890625,1194.4605712890625
-0.142686,1780552214.948124,97,1.4099990129470825,606.0999755859375,1.712385654449463,523.4000854492188,-0.0007596327923238277,0.2605645954608917,0.0001797013683244586,-0.9654560685157776,5.4096701205708086e-05,-2.7731060981750488e-05,-0.00011232862016186118,-0.19561785459518433,0.007252427749335766,-0.03895930200815201,-0.9960918426513672,0.0004889973206445575,0.0014684282941743731,-0.003426333423703909,1.0,0.0,1,1194.4605712890625,1194.4605712890625,1194.4605712890625,1194.4605712890625
-0.126882,1780552214.963928,97,1.4199990034103394,606.0999755859375,1.7123855352401733,523.4000854492188,-0.0007597057265229523,0.26056399941444397,0.0001817431184463203,-0.9654562473297119,5.410147423390299e-05,-2.7731060981750488e-05,-0.00011232952238060534,-0.19561947882175446,0.007241612300276756,-0.038947202265262604,-0.9960918426513672,0.0009779948741197586,0.0014684282941743731,-0.003426333423703909,1.0,0.0,1,1194.4605712890625,1194.4605712890625,1194.4605712890625,1194.4605712890625
-0.110173,1780552214.980637,97,1.4299989938735962,606.0999755859375,1.7123854160308838,523.4000854492188,-0.0007596869254484773,0.26056233048439026,0.00018375058425590396,-0.9654567241668701,5.303193029249087e-05,-2.7604401111602783e-05,-0.00011521043779794127,-0.19710756838321686,0.008850612677633762,-0.032635755836963654,-0.9960918426513672,0.0009779948741197586,0.0014684282941743731,-0.003426333423703909,1.0,0.0,1,1194.4605712890625,1194.4605712890625,1194.4605712890625,1194.4605712890625
-0.109207,1780552214.981603,97,1.439998984336853,606.0999755859375,1.7123852968215942,523.4000854492188,-0.0007595805800519884,0.26056069135665894,0.0001856883754953742,-0.9654571413993835,5.2814830269198865e-05,-2.746284008026123e-05,-0.00011566529428819194,-0.1975950002670288,0.009566085413098335,-0.03292432054877281,-0.9960918426513672,0.0009779948741197586,0.0014684282941743731,-0.003426333423703909,1.0,0.0,1,1194.4605712890625,1194.4605712890625,1194.4605712890625,1194.4605712890625
-0.093594,1780552214.997217,97,1.4499989748001099,606.0999755859375,1.7123855352401733,523.4000854492188,-0.000757519796025008,0.2605575621128082,0.0001721317385090515,-0.9654580950737,-6.155493611004204e-05,1.8648803234100342e-05,-0.00016650103498250246,-0.17177551984786987,0.2078382670879364,-0.01858220063149929,-0.9960918426513672,0.0009779948741197586,0.0014684282941743731,-0.003426333423703909,1.0,0.0,1,1194.4605712890625,1194.4605712890625,1194.4605712890625,1194.4605712890625
-0.092021,1780552214.99879,97,1.4599989652633667,606.0999755859375,1.7123855352401733,523.4000854492188,-0.0007561700767837465,0.2605571746826172,0.00016919847985263914,-0.9654580950737,3.118488530162722e-05,-1.9632279872894287e-05,-0.0001260437275050208,-0.1978214979171753,0.050162095576524734,-0.04474848136305809,-0.9960918426513672,0.0009779948741197586,0.0014684282941743731,-0.003426333423703909,1.0,0.0,1,1194.4605712890625,1194.4605712890625,1194.4605712890625,1194.4605712890625
-0.076884,1780552215.013927,97,1.4699989557266235,606.0999755859375,1.7123854160308838,523.4000854492188,-0.0007557918434031308,0.26055583357810974,0.0001701918663457036,-0.9654585719108582,4.867366442340426e-05,-2.5935471057891846e-05,-0.00011780456406995654,-0.19786135852336884,0.01748906448483467,-0.03531676158308983,-0.9960918426513672,0.0009779948741197586,0.0014684282941743731,-0.003426333423703909,1.0,0.0,1,1194.4605712890625,1194.4605712890625,1194.4605712890625,1194.4605712890625
-0.060133,1780552215.030678,97,1.4799989461898804,606.0999755859375,1.7123852968215942,523.4000854492188,-0.0007556171040050685,0.2605542242527008,0.00017193291569128633,-0.965458869934082,5.1975639507872984e-05,-2.714991569519043e-05,-0.00011617063137236983,-0.19775615632534027,0.011245188303291798,-0.033481165766716,-0.9960918426513672,0.0009779948741197586,0.0014684282941743731,-0.003426333423703909,1.0,0.0,1,1194.4605712890625,1194.4605712890625,1194.4605712890625,1194.4605712890625
-0.059244,1780552215.031566,97,1.4899989366531372,606.0999755859375,1.7123851776123047,523.4000854492188,-0.0007554835174232721,0.26055264472961426,0.00017381653015036136,-0.965459406375885,5.260055331746116e-05,-2.7373433113098145e-05,-0.00011585706670302898,-0.19772788882255554,0.010054778307676315,-0.03311716765165329,-0.9960918426513672,0.0009779948741197586,0.0014684282941743731,-0.003426333423703909,1.0,0.0,1,1194.4605712890625,1194.4605712890625,1194.4605712890625,1194.4605712890625
-0.04354,1780552215.047271,97,1.499998927116394,606.0999755859375,1.712388038635254,523.4000854492188,-0.0007553293835371733,0.2605510354042053,0.00017567579925525934,-0.9654598236083984,4.3947155063506216e-05,-4.647672176361084e-05,-0.00010617790394462645,-0.17418219149112701,0.0139406006783247,-0.03359316661953926,-0.9960918426513672,0.0009779948741197586,0.0014684282941743731,-0.003426333423703909,1.0,0.0,1,1194.4605712890625,1194.4605712890625,1194.4605712890625,1194.4605712890625
-0.042531,1780552215.048279,97,1.5099989175796509,606.0999755859375,1.7123879194259644,523.4000854492188,-0.0007555262418463826,0.260549396276474,0.00017735545407049358,-0.9654602408409119,5.1164653996238485e-05,-2.7179718017578125e-05,-0.00011438624642323703,-0.19474846124649048,0.0108402194455266,-0.032827723771333694,-0.9960918426513672,0.0009779948741197586,0.0014684282941743731,-0.003426333423703909,1.0,0.0,1,1194.4605712890625,1194.4605712890625,1194.4605712890625,1194.4605712890625
-0.026798,1780552215.064012,97,1.5199989080429077,606.0999755859375,1.7123878002166748,523.4000854492188,-0.0007554386393167078,0.26054778695106506,0.00017922440019901842,-0.9654606580734253,5.245314969215542e-05,-2.7373433113098145e-05,-0.00011542827996890992,-0.19704686105251312,0.009904126636683941,-0.03298311308026314,-0.9960918426513672,0.0009779948741197586,0.0014684282941743731,-0.003426333423703909,1.0,0.0,1,1194.4605712890625,1194.4605712890625,1194.4605712890625,1194.4605712890625
-0.010138,1780552215.080673,97,1.5299988985061646,606.0999755859375,1.7123876810073853,523.4000854492188,-0.0007553144241683185,0.26054617762565613,0.00018113321857526898,-0.9654610753059387,5.2691339078592137e-05,-2.7418136596679688e-05,-0.00011554953380255029,-0.19737008213996887,0.009663558565080166,-0.03296738490462303,-0.9960918426513672,0.0009779948741197586,0.0014684282941743731,-0.003426333423703909,1.0,0.0,1,1194.4605712890625,1194.4605712890625,1194.4605712890625,1194.4605712890625
-0.009283,1780552215.081527,97,1.5399988889694214,606.0999755859375,1.7123879194259644,523.4000854492188,-0.0007532443851232529,0.2605430483818054,0.00016756846162024885,-0.9654620289802551,-6.158999167382717e-05,1.8656253814697266e-05,-0.00016633092309348285,-0.17153799533843994,0.2077569216489792,-0.018564466387033463,-0.9960918426513672,0.0009779948741197586,0.0014684282941743731,-0.003426333423703909,1.0,0.0,1,1194.4605712890625,1194.4605712890625,1194.4605712890625,1194.4605712890625
0.006625,1780552215.097436,97,1.5499988794326782,606.0999755859375,1.7123879194259644,523.4000854492188,-0.0007518873317167163,0.2605426609516144,0.0001646309538045898,-0.9654620289802551,3.116520383628085e-05,-1.9624829292297363e-05,-0.00012586417142301798,-0.19757774472236633,0.050053369253873825,-0.04473055526614189,-0.9960918426513672,0.0009779948741197586,0.0014684282941743731,-0.003426333423703909,1.0,0.0,1,1194.4605712890625,1194.4605712890625,1194.4605712890625,1194.4605712890625
0.007672,1780552215.098483,97,1.559998869895935,606.0999755859375,1.7123878002166748,523.4000854492188,-0.00075150141492486,0.26054129004478455,0.00016562013479415327,-0.9654623866081238,4.865218579652719e-05,-2.5920569896697998e-05,-0.0001176197110908106,-0.19760620594024658,0.017376530915498734,-0.03528990596532822,-0.9960918426513672,0.0009779948741197586,0.0014684282941743731,-0.003426333423703909,1.0,0.0,1,1194.4605712890625,1194.4605712890625,1194.4605712890625,1194.4605712890625
0.023223,1780552215.114034,97,1.569998860359192,606.0999755859375,1.7123876810073853,523.4000854492188,-0.0007513197488151491,0.2605397403240204,0.00016735678946133703,-0.9654629230499268,5.195167614147067e-05,-2.7142465114593506e-05,-0.00011598367564147338,-0.19749630987644196,0.011134615167975426,-0.03345486894249916,-0.9960918426513672,0.0009779948741197586,0.0014684282941743731,-0.003426333423703909,1.0,0.0,1,1194.4605712890625,1194.4605712890625,1194.4605712890625,1194.4605712890625
0.039921,1780552215.130731,97,1.5799988508224487,606.0999755859375,1.7123875617980957,523.4000854492188,-0.0007511791191063821,0.26053810119628906,0.0001692367804935202,-0.9654632210731506,5.2583389333449304e-05,-2.7358531951904297e-05,-0.00011566741159185767,-0.19746993482112885,0.009932387620210648,-0.03309103846549988,-0.9960918426513672,0.0009779948741197586,0.0014684282941743731,-0.003426333423703909,1.0,0.0,1,1194.4605712890625,1194.4605712890625,1194.4605712890625,1194.4605712890625
0.041098,1780552215.131908,97,1.5899988412857056,606.0999755859375,1.7123874425888062,523.4000854492188,-0.0007510469295084476,0.2605365216732025,0.0001711443910608068,-0.9654637575149536,5.2700910600833595e-05,-2.7410686016082764e-05,-0.00011561541759874672,-0.19747142493724823,0.009709788486361504,-0.03301002457737923,-0.9960918426513672,0.0009779948741197586,0.0014684282941743731,-0.003426333423703909,1.0,0.0,1,1194.4605712890625,1194.4605712890625,1194.4605712890625,1194.4605712890625
0.056529,1780552215.14734,97,1.5999988317489624,606.0999755859375,1.7123873233795166,523.4000854492188,-0.0007509170100092888,0.2605349123477936,0.00017305838991887867,-0.965464174747467,5.27281008544378e-05,-2.7418136596679688e-05,-0.00011561436986085027,-0.19748611748218536,0.009665381163358688,-0.03299195319414139,-0.9960918426513672,0.002444987650960684,0.0014684282941743731,-0.003426333423703909,1.0,0.0,1,1194.4605712890625,1194.4605712890625,1194.4605712890625,1194.4605712890625
0.057589,1780552215.1484,97,1.6099988222122192,606.0999755859375,1.712387204170227,523.4000854492188,-0.0007505106623284519,0.2605300843715668,0.0001748686481732875,-0.9654654860496521,4.952193557983264e-05,-2.7038156986236572e-05,-0.000124214100651443,-0.20189228653907776,0.01445053145289421,-0.014048508368432522,-0.9960918426513672,0.002444987650960684,0.0014684282941743731,-0.003426333423703909,1.0,0.0,1,1194.4605712890625,1194.4605712890625,1194.4605712890625,1194.4605712890625
0.073232,1780552215.164043,97,1.619998812675476,606.0999755859375,1.7123870849609375,523.4000854492188,-0.0007498416816815734,0.26052534580230713,0.00017646930064074695,-0.9654667377471924,4.887583781965077e-05,-2.6620924472808838e-05,-0.0001255672104889527,-0.20335160195827484,0.01658962294459343,-0.014935529790818691,-0.9804592132568359,0.002444987650960684,0.0014684282941743731,-0.003426333423703909,1.0,0.0,1,1194.4605712890625,1194.4605712890625,1194.4605712890625,1194.4605712890625
0.089752,1780552215.180562,97,1.629998803138733,606.0999755859375,1.7123873233795166,523.4000854492188,-0.0007471900898963213,0.2605190873146057,0.00016254960792139173,-0.9654684066772461,-6.558318273164332e-05,1.9535422325134277e-05,-0.00017655456031206995,-0.17769800126552582,0.21512354910373688,-0.0006908962968736887,-0.9413776397705078,0.002444987650960684,0.0014684282941743731,-0.003426333423703909,1.0,0.0,1,1194.4605712890625,1194.4605712890625,1194.4605712890625,1194.4605712890625
0.090894,1780552215.181704,97,1.6399987936019897,606.0999755859375,1.7123873233795166,523.4000854492188,-0.0007452486315742135,0.26051563024520874,0.00015925259504001588,-0.9654693603515625,2.715624577831477e-05,-1.874566078186035e-05,-0.00013610426685772836,-0.20374353229999542,0.0574556328356266,-0.026872215792536736,-0.9413776397705078,0.002444987650960684,0.0014684282941743731,-0.003426333423703909,1.0,0.0,1,1194.4605712890625,1194.4605712890625,1194.4605712890625,1194.4605712890625
0.106614,1780552215.197424,97,1.6499987840652466,606.0999755859375,1.712388277053833,523.4000854492188,-0.0007670667837373912,0.26051345467567444,0.00017011196177918464,-0.9654698967933655,8.38000705698505e-05,-6.389617919921875e-05,-7.715425454080105e-08,-0.06907881796360016,-0.1264018565416336,-0.020070228725671768,-0.8856863975524902,0.002444987650960684,0.0014684282941743731,-0.003426333423703909,1.0,0.0,1,1194.4605712890625,1194.4605712890625,1194.4605712890625,1194.4605712890625
0.10777,1780552215.19858,97,1.6599987745285034,606.0999755859375,1.712388038635254,523.4000854492188,-0.0007702426519244909,0.2605074346065521,0.00017432130698580295,-0.965471625328064,5.6188895541708916e-05,-3.1888484954833984e-05,-0.00010628204472595826,-0.1813310980796814,-0.011196059174835682,-0.002848890610039234,-0.8856863975524902,0.002444987650960684,0.0014684282941743731,-0.003426333423703909,1.0,0.0,1,1194.4605712890625,1194.4605712890625,1194.4605712890625,1194.4605712890625
0.123313,1780552215.214123,97,1.6699987649917603,606.0999755859375,1.712388515472412,523.4000854492188,-0.0007640990661457181,0.2605005204677582,0.0001587124861543998,-0.965473473072052,-2.3207230697153136e-05,-4.604458808898926e-06,-0.00017670764646027237,-0.2171882539987564,0.15168151259422302,-0.01808464154601097,-0.7606253027915955,0.002444987650960684,0.0014684282941743731,-0.003426333423703909,1.0,0.0,1,1194.4605712890625,1194.4605712890625,1194.4605712890625,1194.4605712890625
0.139791,1780552215.230601,97,1.679998755455017,606.0999755859375,1.7123883962631226,523.4000854492188,-0.000762085197493434,0.26049676537513733,0.00015715128392912447,-0.9654744863510132,3.560545883374289e-05,-2.1360814571380615e-05,-0.00013442696945276111,-0.20705945789813995,0.04385017976164818,-0.023922136053442955,-0.6101611852645874,0.002444987650960684,0.0014684282941743731,-0.003426333423703909,1.0,0.0,1,1194.4605712890625,1194.4605712890625,1194.4605712890625,1194.4605712890625
0.140689,1780552215.2315,97,1.689998745918274,606.0999755859375,1.712388277053833,523.4000854492188,-0.0007614296046085656,0.2604921758174896,0.00015864423767197877,-0.9654756188392639,4.8474117647856474e-05,-2.6457011699676514e-05,-0.00012523538316600025,-0.20288363099098206,0.017223773524165154,-0.01603330485522747,-0.6101611852645874,0.002444987650960684,0.0014684282941743731,-0.003426333423703909,1.0,0.0,1,1194.4605712890625,1194.4605712890625,1194.4605712890625,1194.4605712890625
0.156625,1780552215.247435,97,1.6999987363815308,606.0999755859375,1.7123881578445435,523.4000854492188,-0.0007610229658894241,0.26048746705055237,0.00016072117432486266,-0.9654769897460938,5.093303116154857e-05,-2.7433037757873535e-05,-0.0001235770614584908,-0.20219166576862335,0.01217908225953579,-0.014437674544751644,-0.4274548292160034,0.003422982757911086,0.0014684282941743731,-0.003426333423703909,1.0,0.0,1,1194.4605712890625,1194.4605712890625,1194.4605712890625,1194.4605712890625
0.157772,1780552215.248583,97,1.7099987268447876,606.0999755859375,1.7123879194259644,523.4000854492188,-0.0007610019529238343,0.26048046350479126,0.00016379824955947697,-0.965478777885437,5.3334249969339e-05,-2.8975307941436768e-05,-0.00012525191414169967,-0.20284993946552277,0.005707027390599251,-7.899695629021153e-05,-0.4274548292160034,0.003422982757911086,0.0014684282941743731,-0.003426333423703909,1.0,0.0,1,1194.4605712890625,1194.4605712890625,1194.4605712890625,1194.4605712890625
0.173264,1780552215.264074,97,1.7199987173080444,606.0999755859375,1.7123876810073853,523.4000854492188,-0.0007609213935211301,0.26047348976135254,0.00016695157682988793,-0.9654808044433594,5.377476918511093e-05,-2.90796160697937e-05,-0.0001254539383808151,-0.2034151405096054,0.005238153040409088,-2.776516521407757e-05,-0.26917439699172974,0.004400977864861488,0.0014684282941743731,-0.003426333423703909,1.0,0.0,1,1583.5125732421875,1469.1724853515625,1528.5067138671875,1566.4317626953125
0.189859,1780552215.28067,97,1.7299987077713013,606.0999755859375,1.7123874425888062,523.4000854492188,-0.000761374831199646,0.26046422123908997,0.00017137997201643884,-0.9654831886291504,5.7361728977411985e-05,-3.108382225036621e-05,-0.00012603122740983963,-0.20346863567829132,-0.0037323515862226486,0.014611350372433662,-0.12164139747619629,0.004400977864861488,0.0014684282941743731,-0.003426333423703909,1.0,0.0,1,2299.840576171875,2187.258056640625,2246.09912109375,2283.257080078125
0.190643,1780552215.281454,97,1.739998698234558,606.0999755859375,1.712387204170227,523.4000854492188,-0.0007627074373885989,0.26045483350753784,0.00017760586342774332,-0.965485692024231,6.511429091915488e-05,-3.4108757972717285e-05,-0.00011952320346608758,-0.20017868280410767,-0.019839603453874588,0.017282044515013695,-0.12164139747619629,0.004400977864861488,0.0014684282941743731,-0.003426333423703909,1.0,0.0,1,2299.350830078125,2187.8876953125,2245.7001953125,2283.516845703125
0.206452,1780552215.297262,97,1.749998688697815,606.0999755859375,1.712386965751648,523.4000854492188,-0.0007642263080924749,0.26044532656669617,0.00018420784908812493,-0.9654882550239563,6.666097760898992e-05,-3.4749507904052734e-05,-0.00011834874021587893,-0.1995561122894287,-0.023139743134379387,0.018371883779764175,-0.0004885196685791016,0.004400977864861488,0.0014684282941743731,-0.003426333423703909,1.0,0.0,1,3015.58740234375,2904.400390625,2962.004150390625,2999.9091796875
0.207312,1780552215.298122,97,1.7599986791610718,606.0999755859375,1.7123866081237793,523.4000854492188,-0.0007666918681934476,0.26043567061424255,0.00019256614905316383,-0.9654908776283264,7.411967817461118e-05,-3.771483898162842e-05,-0.00011159608402522281,-0.19572889804840088,-0.03904178366065025,0.021092049777507782,-0.0004885196685791016,0.004400977864861488,0.0014684282941743731,-0.003426333423703909,1.0,0.0,1,3015.11328125,2905.038330078125,2961.601806640625,3000.14990234375
0.223249,1780552215.31406,97,1.7699986696243286,606.0999755859375,1.7123875617980957,523.4000854492188,-0.0007613773923367262,0.26042234897613525,0.000168153244885616,-0.9654944539070129,-0.00011221439490327612,3.062933683395386e-05,-0.00021523487521335483,-0.18617118895053864,0.2955840528011322,0.03165014833211899,0.10014653205871582,0.004400977864861488,0.0014684282941743731,-0.003426333423703909,1.0,0.0,1,4727.34228515625,4599.70654296875,4674.33544921875,4693.50146484375
0.239801,1780552215.330612,97,1.7799986600875854,606.0999755859375,1.7123873233795166,523.4000854492188,-0.0007635074434801936,0.26041460037231445,0.00017262535402551293,-0.9654966592788696,5.6775308621581644e-05,-3.1653791666030884e-05,-0.00011490293400129303,-0.19055473804473877,-0.008718753233551979,0.006977546960115433,0.17733263969421387,0.004400977864861488,0.0014684282941743731,-0.003426333423703909,1.0,0.0,1,6312.529296875,6199.56396484375,6257.58154296875,6295.67236328125
0.24068,1780552215.33149,97,1.7899986505508423,606.0999755859375,1.7123868465423584,523.4000854492188,-0.0007702843868173659,0.26040443778038025,0.00018824436119757593,-0.9654992818832397,0.00010460372868692502,-5.015172064304352e-05,-8.146434265654534e-05,-0.17693781852722168,-0.10574919730424881,0.03180433437228203,0.17733263969421387,0.004400977864861488,0.0014684282941743731,-0.003426333423703909,1.0,0.0,1,6309.07275390625,6203.60400390625,6255.6865234375,6296.99365234375
0.256487,1780552215.347297,97,1.7999986410140991,606.0999755859375,1.712387204170227,523.4000854492188,-0.0007719762506894767,0.26039162278175354,0.00018845740123651922,-0.9655027389526367,4.059970160597004e-05,-3.100931644439697e-05,-0.00012916570995002985,-0.19128115475177765,0.014510163106024265,0.033030301332473755,0.26526618003845215,0.004400977864861488,0.0014684282941743731,-0.003426333423703909,1.0,0.0,1,8415.1953125,8303.1943359375,8362.5244140625,8397.087890625
0.257857,1780552215.348668,97,1.809998631477356,606.0999755859375,1.7124364376068115,523.4000854492188,-0.0007758658612146974,0.260324627161026,0.00022839072335045785,-0.9655207991600037,3.6265497328713536e-05,0.004930376075208187,5.1482958951964974e-05,-0.07642606645822525,-0.45397573709487915,0.794623851776123,0.26526618003845215,0.004400977864861488,0.0014684282941743731,-0.003426333423703909,1.0,0.0,1,8371.2626953125,8350.7900390625,8379.3828125,8374.1376953125
0.273292,1780552215.364102,97,1.8199986219406128,606.0999755859375,1.7125351428985596,523.4000854492188,-0.0007869966793805361,0.26025763154029846,0.00026506459107622504,-0.9655388593673706,4.048048867844045e-05,0.009873632341623306,0.00023532046179752797,0.013414171524345875,-0.43951424956321716,0.7946239113807678,0.3199805021286011,0.004400977864861488,0.0014684282941743731,-0.003426333423703909,1.0,0.0,1,9827.5166015625,9806.2431640625,9831.8212890625,9825.7763671875
0.289849,1780552215.380659,97,1.8299986124038696,606.0999755859375,1.7128807306289673,523.4000854492188,-0.0007947999401949346,0.2601906359195709,0.00030747041455470026,-0.9655569195747375,5.411788879428059e-05,0.03455430269241333,0.0004564898263197392,-0.040497004985809326,-0.4930102527141571,0.7946239709854126,0.34929168224334717,0.004400977864861488,0.0014684282941743731,-0.003426333423703909,1.0,0.0,1,10643.8154296875,10625.48828125,10650.4130859375,10647.3203125
0.291106,1780552215.381917,97,1.8399986028671265,606.0999755859375,1.7135837078094482,523.4000854492188,-0.0008031860343180597,0.2601236402988434,0.0003416170657146722,-0.9655749797821045,8.014633931452408e-05,0.07029291242361069,0.0007013506256043911,-0.009423126466572285,-0.4033646583557129,0.7946239709854126,0.34929168224334717,0.004400977864861488,0.0014684282941743731,-0.003426333423703909,1.0,0.0,1,10642.7451171875,10619.4541015625,10648.025390625,10639.9765625
0.306631,1780552215.397441,97,1.8499985933303833,606.0999755859375,1.7146424055099487,523.4000854492188,-0.0008122122380882502,0.26005664467811584,0.00037459045415744185,-0.9655929803848267,0.00011504979920573533,0.10587504506111145,0.0009508365765213966,0.001156743266619742,-0.39229100942611694,0.7946239113807678,0.3952125310897827,0.004400977864861488,0.0014684282941743731,-0.003426333423703909,1.0,0.0,1,11981.900390625,11957.984375,11986.7333984375,11978.068359375
0.309242,1780552215.400052,97,1.8599985837936401,606.0999755859375,1.7162374258041382,523.4000854492188,-0.0008192297536879778,0.2599896490573883,0.00040579825872555375,-0.9656109809875488,0.00016391109966207296,0.15949761867523193,0.0012371096527203918,-0.0158075001090765,-0.3667689263820648,0.7946240305900574,0.3952125310897827,0.004400977864861488,0.0014684282941743731,-0.003426333423703909,1.0,0.0,1,11976.1552734375,11950.8046875,11981.71484375,11971.62890625
0.323281,1780552215.414092,97,1.869998574256897,606.0999755859375,1.7183659076690674,523.4000854492188,-0.0008257318986579776,0.25992265343666077,0.00043687375728040934,-0.965628981590271,0.00022188728326000273,0.21285364031791687,0.0015277136117219925,-0.021115770563483238,-0.3637697994709015,0.7946239113807678,0.40889108180999756,0.004400977864861488,0.0014684282941743731,-0.003426333423703909,1.0,0.0,1,12382.2431640625,12356.7060546875,12388.0341796875,12377.775390625
0.339972,1780552215.430783,97,1.8799985647201538,606.0999755859375,1.721081018447876,523.4000854492188,-0.0008439240045845509,0.2598556578159332,0.0004694697563536465,-0.9656469821929932,0.0002912549243774265,0.27150458097457886,0.0018325848504900932,0.1037084311246872,-0.4154132902622223,0.7946239709854126,0.4225696325302124,0.004400977864861488,0.0014684282941743731,-0.003426333423703909,1.0,0.0,1,12794.3037109375,12771.60546875,12794.7744140625,12787.369140625
0.342269,1780552215.433079,97,1.8899985551834106,606.0999755859375,1.7244356870651245,523.4000244140625,-0.0008525477605871856,0.2597886621952057,0.0004991985624656081,-0.9656649827957153,0.00037208065623417497,0.3354678750038147,0.0021560858003795147,0.006367083638906479,-0.35519424080848694,0.7946240305900574,0.4225696325302124,0.004400977864861488,0.0014684282941743731,-0.003426333423703909,1.0,0.0,1,12786.7958984375,12760.7314453125,12791.423828125,12780.6669921875
0.356589,1780552215.447399,97,1.8999985456466675,606.0999755859375,1.728426456451416,523.4000244140625,-0.0009142403141595423,0.25972169637680054,0.000526553310919553,-0.9656829237937927,0.0004618688835762441,0.3990553617477417,0.0024843618739396334,0.600679337978363,-0.4869075417518616,0.7946239709854126,0.4557889699935913,0.004400977864861488,0.0014684282941743731,-0.003426333423703909,1.0,0.0,1,13822.9931640625,13804.220703125,13802.2216796875,13798.771484375
0.359075,1780552215.449886,97,1.9099985361099243,606.0999755859375,1.733188509941101,523.4000244140625,-0.0009957432048395276,0.2596547305583954,0.0005494041834026575,-0.9657008647918701,0.0005625883350148797,0.4761757254600525,0.0028631621971726418,0.8333033919334412,-0.4960274398326874,0.7946240305900574,0.4557889699935913,0.004400977864861488,0.0014684282941743731,-0.003426333423703909,1.0,0.0,1,13819.4716796875,13801.18359375,13788.7177734375,13785.771484375
0.373327,1780552215.464138,97,1.9199985265731812,606.0999755859375,1.7387168407440186,523.4000854492188,-0.001083724549971521,0.25958776473999023,0.0005706099327653646,-0.9657187461853027,0.000663383339997381,0.5527940988540649,0.0032722519244998693,0.9098902940750122,-0.4970983564853668,0.7946239709854126,0.4557889699935913,0.004400977864861488,0.0014684282941743731,-0.003426333423703909,1.0,0.0,1,13812.876953125,13794.625,13778.802734375,13775.9130859375
0.38981,1780552215.480621,97,1.929998517036438,606.0999755859375,1.7450060844421387,523.400146484375,-0.001169161987490952,0.2595207691192627,0.0006026971386745572,-0.9657366275787354,0.0007630311883985996,0.628887414932251,0.003713557031005621,0.8493691682815552,-0.609948992729187,0.7946239709854126,0.47337567806243896,0.004400977864861488,0.0014684282941743731,-0.003426333423703909,1.0,0.0,1,14358.8359375,14346.85546875,14327.318359375,14330.716796875
0.392353,1780552215.483163,97,1.9399985074996948,606.0999755859375,1.7521253824234009,523.4002075195312,-0.0012400195701047778,0.25945377349853516,0.0006338804378174245,-0.965754508972168,0.0008698117453604937,0.7119078040122986,0.004206178244203329,0.6907094120979309,-0.5565873384475708,0.7946239709854126,0.47337567806243896,0.004400977864861488,0.0014684282941743731,-0.003426333423703909,1.0,0.0,1,14348.19140625,14333.2138671875,14323.4462890625,14323.8701171875
0.406591,1780552215.497401,97,1.9499984979629517,606.0999755859375,1.760068655014038,523.4002685546875,-0.001306168152950704,0.25938680768013,0.0006656936602666974,-0.9657725095748901,0.000980744487605989,0.7943035364151001,0.004726356826722622,0.6367224454879761,-0.5495574474334717,0.7946239709854126,0.47337567806243896,0.004400977864861488,0.0014684282941743731,-0.003426333423703909,1.0,0.0,1,14338.5419921875,14323.1513671875,14316.0859375,14316.1181640625
0.408963,1780552215.499774,97,1.9599984884262085,606.0999755859375,1.768829345703125,523.4003295898438,-0.0013707047328352928,0.2593197822570801,0.0006978437304496765,-0.9657902717590332,0.0010964848333969712,0.8760493397712708,0.005272149108350277,0.6178833842277527,-0.5484954714775085,0.7946239709854126,0.47337567806243896,0.004400977864861488,0.0014684282941743731,-0.003426333423703909,1.0,0.0,1,14329.5263671875,14314.0546875,14307.8515625,14307.8232421875
0.42328,1780552215.51409,97,1.9699984788894653,606.0999755859375,1.7784007787704468,523.400390625,-0.0014251330867409706,0.2592528164386749,0.000716103648301214,-0.9658082723617554,0.0012172663118690252,0.9571205377578735,0.005842727608978748,0.5472878813743591,-0.36473146080970764,0.794623851776123,0.47435271739959717,0.004400977864861488,0.0014684282941743731,-0.003426333423703909,1.0,0.0,1,14355.8359375,14330.0439453125,14337.1796875,14326.8505859375
0.439819,1780552215.530629,97,1.9799984693527222,606.0999755859375,1.7887800931930542,523.4004516601562,-0.001477000187151134,0.2591858208179474,0.0007328750798478723,-0.965826153755188,0.0013392125256359577,1.0379072427749634,0.006434047594666481,0.5233647227287292,-0.34064996242523193,0.7946240305900574,0.47435271739959717,0.004400977864861488,0.0014684282941743731,-0.003426333423703909,1.0,0.0,1,14347.4287109375,14320.2509765625,14329.78125,14318.0849609375
0.441733,1780552215.532543,97,1.989998459815979,606.0999755859375,1.7999600172042847,523.4005126953125,-0.0015422382857650518,0.25911879539489746,0.0007518312777392566,-0.965843915939331,0.0014617391861975193,1.1179683208465576,0.007043524645268917,0.6648627519607544,-0.4045448303222656,0.7946240305900574,0.47435271739959717,0.004400977864861488,0.0014684282941743731,-0.003426333423703909,1.0,0.0,1,14340.177734375,14316.5556640625,14316.3876953125,14308.2685546875
0.456506,1780552215.547316,97,1.9999984502792358,606.0999755859375,1.8119330406188965,523.4005737304688,-0.0015974886482581496,0.2590518295764923,0.0007682064897380769,-0.9658619165420532,0.0015843119472265244,1.1972805261611938,0.007675997447222471,0.5619794130325317,-0.3463185429573059,0.7946239709854126,0.47435271739959717,0.004400977864861488,0.0014684282941743731,-0.003426333423703909,1.0,0.0,1,14331.1357421875,14304.2060546875,14311.76953125,14300.3623046875
0.458261,1780552215.549071,97,2.0099985599517822,606.0999755859375,1.8246915340423584,523.400634765625,-0.0016495662275701761,0.2589848041534424,0.0007847548113204539,-0.9658796787261963,0.0017069474561139941,1.2758214473724365,0.008327300660312176,0.5263544321060181,-0.33882027864456177,0.7946239113807678,0.47435271739959717,0.004400977864861488,0.0014684282941743731,-0.003426333423703909,1.0,0.0,1,14322.1796875,14294.79296875,14304.33203125,14292.48828125
0.473167,1780552215.563977,97,2.019998550415039,606.0999755859375,1.8382275104522705,523.4006958007812,-0.0017005570698529482,0.25891780853271484,0.0008015204803086817,-0.9658975601196289,0.0018299963558092713,1.3535689115524292,0.008996039628982544,0.5136784315109253,-0.3379986882209778,0.7946240305900574,0.47435271739959717,0.004400977864861488,0.0014684282941743731,-0.003426333423703909,1.0,0.0,1,14313.595703125,14286.1279296875,14296.27734375,14284.373046875
0.489877,1780552215.580688,97,2.029998540878296,606.0999755859375,1.8525326251983643,523.4008178710938,-0.0017465007258579135,0.2588507831096649,0.0008299411274492741,-0.9659154415130615,0.001953619299456477,1.4305016994476318,0.0096815824508667,0.42323461174964905,-0.452025830745697,0.7946239113807678,0.47435271739959717,0.004400977864861488,0.0014684282941743731,-0.003426333423703909,1.0,0.0,1,14300.14453125,14279.083984375,14286.7353515625,14281.2568359375
0.491289,1780552215.582099,97,2.0399985313415527,606.0999755859375,1.8675987720489502,523.4009399414062,-0.0017901447135955095,0.2587837278842926,0.0008603957248851657,-0.9659332036972046,0.002082457300275564,1.506598949432373,0.01038297638297081,0.39174890518188477,-0.4677194058895111,0.7946239113807678,0.47435271739959717,0.004400977864861488,0.0014684282941743731,-0.003426333423703909,1.0,0.0,1,14290.8125,14270.61328125,14278.7568359375,14274.158203125
0.50653,1780552215.59734,97,2.0499985218048096,606.0999755859375,1.8834173679351807,523.4010620117188,-0.0018374864012002945,0.25871676206588745,0.0008798419148661196,-0.965951144695282,0.002217391738668084,1.5818406343460083,0.011099332943558693,0.4653185307979584,-0.35683125257492065,0.7946239113807678,0.47435271739959717,0.004400977864861488,0.0014684282941743731,-0.003426333423703909,1.0,0.0,1,14287.423828125,14260.91796875,14272.146484375,14261.2626953125
0.508319,1780552215.59913,97,2.0599985122680664,606.0999755859375,1.899979591369629,523.4011840820312,-0.0018727652495726943,0.2586497366428375,0.0008952434873208404,-0.965968906879425,0.002354079857468605,1.6562070846557617,0.011830659583210945,0.34379059076309204,-0.2763027250766754,0.7946239113807678,0.47435271739959717,0.004400977864861488,0.0014684282941743731,-0.003426333423703909,1.0,0.0,1,14279.0029296875,14247.900390625,14269.009765625,14253.546875
0.523229,1780552215.61404,97,2.0699985027313232,606.0999755859375,1.9172765016555786,523.4013061523438,-0.001904221368022263,0.25858274102211,0.0009106564102694392,-0.9659867882728577,0.002492195926606655,1.7296793460845947,0.012572035193443298,0.3014408349990845,-0.2650963068008423,0.7946239709854126,0.47435271739959717,0.004400977864861488,0.0014684282941743731,-0.003426333423703909,1.0,0.0,1,14270.421875,14238.6455078125,14262.265625,14246.1484375
0.539871,1780552215.630682,97,2.07999849319458,606.0999755859375,1.9352989196777344,523.4014282226562,-0.0019207013538107276,0.25851577520370483,0.0009241440566256642,-0.9660047888755798,0.0026320687029510736,1.8022390604019165,0.013321888633072376,0.1413661688566208,-0.19940638542175293,0.7946240305900574,0.47435271739959717,0.004400977864861488,0.0014684282941743731,-0.003426333423703909,1.0,0.0,1,14260.892578125,14225.3447265625,14259.728515625,14239.859375
0.541695,1780552215.632505,97,2.089998483657837,606.0999755859375,1.9540376663208008,523.4015502929688,-0.001932257553562522,0.2584487199783325,0.0009381166310049593,-0.9660225510597229,0.0027743899263441563,1.873868465423584,0.014074569568037987,0.08542922884225845,-0.19019202888011932,0.7946240305900574,0.47435271739959717,0.004400977864861488,0.0014684282941743731,-0.003426333423703909,1.0,0.0,1,14252.1171875,14216.0029296875,14253.3994140625,14232.982421875
0.55668,1780552215.647491,97,2.0999984741210938,606.0999145507812,1.9734833240509033,523.4016723632812,-0.001955705927684903,0.258381724357605,0.0009545860812067986,-0.9660405516624451,0.0029197412077337503,1.9445505142211914,0.014828245155513287,0.2096744328737259,-0.25304779410362244,0.7946239113807678,0.47435271739959717,0.004400977864861488,0.0014684282941743731,-0.003426333423703909,1.0,0.0,1,14245.3193359375,14212.744140625,14241.158203125,14224.2978515625
0.558219,1780552215.649029,97,2.1099984645843506,606.0999755859375,1.9936259984970093,523.40185546875,-0.001965185860171914,0.2583145797252655,0.001015436602756381,-0.9660583138465881,0.003067829879000783,2.014268398284912,0.015587138943374157,-0.07635820657014847,-0.7029951214790344,0.7946239113807678,0.47435271739959717,0.004400977864861488,0.0014684282941743731,-0.003426333423703909,1.0,0.0,1,14218.5693359375,14211.62109375,14226.9560546875,14235.7392578125
0.573466,1780552215.664276,97,2.1199984550476074,606.1000366210938,2.014456033706665,523.4020385742188,-0.001967694377526641,0.258247435092926,0.001084336545318365,-0.9660761952400208,0.0032352523412555456,2.0830063819885254,0.016350338235497475,-0.17736107110977173,-0.7714660167694092,0.7946239709854126,0.47435271739959717,0.004400977864861488,0.0014684282941743731,-0.003426333423703909,1.0,0.0,1,14206.822265625,14203.775390625,14219.6572265625,14232.3603515625
0.590078,1780552215.680888,97,2.1299984455108643,606.10009765625,2.035963535308838,523.4022216796875,-0.001954091480001807,0.25818032026290894,0.0011527652386575937,-0.9660941958427429,0.0034251930192112923,2.1507489681243896,0.01711600087583065,-0.35433122515678406,-0.7185693979263306,0.7946240305900574,0.47435271739959717,0.004400977864861488,0.0014684282941743731,-0.003426333423703909,1.0,0.0,1,14196.9580078125,14190.884765625,14217.5908203125,14227.28515625
0.592434,1780552215.683245,97,2.139998435974121,606.1001586914062,2.058138132095337,523.4024047851562,-0.0019350250950083137,0.25811314582824707,0.001221831887960434,-0.966111958026886,0.0036386940628290176,2.2174813747406006,0.017878403887152672,-0.41669851541519165,-0.7094711661338806,0.7946240305900574,0.47435271739959717,0.004400977864861488,0.0014684282941743731,-0.003426333423703909,1.0,0.0,1,14188.4521484375,14181.8505859375,14211.853515625,14221.0380859375
0.606773,1780552215.697583,97,2.149998426437378,606.1002197265625,2.080970048904419,523.402587890625,-0.0019184726988896728,0.25804603099823,0.001280290656723082,-0.9661299586296082,0.003876178525388241,2.283189535140991,0.018635641783475876,-0.3574948310852051,-0.5994656682014465,0.7946240305900574,0.47435271739959717,0.004400977864861488,0.0014684282941743731,-0.003426333423703909,1.0,0.0,1,14185.6123046875,14172.7021484375,14206.4306640625,14209.322265625
0.609773,1780552215.700583,97,2.1599984169006348,606.1002807617188,2.1044483184814453,523.4027709960938,-0.0019033782882615924,0.2579788863658905,0.0013366880593821406,-0.9661478400230408,0.004133515525609255,2.3478596210479736,0.01938753016293049,-0.33525577187538147,-0.5809568166732788,0.7946240305900574,0.47435271739959717,0.004400977864861488,0.0014684282941743731,-0.003426333423703909,1.0,0.0,1,14179.4443359375,14165.4580078125,14199.302734375,14201.134765625
0.623201,1780552215.714011,97,2.1699984073638916,606.100341796875,2.128563165664673,523.4029541015625,-0.001888951868750155,0.25791171193122864,0.001392590464092791,-0.9661656022071838,0.0044096107594668865,2.4114787578582764,0.020134301856160164,-0.32639390230178833,-0.577453076839447,0.7946240305900574,0.47435271739959717,0.004400977864861488,0.0014684282941743731,-0.003426333423703909,1.0,0.0,1,14172.650390625,14158.4482421875,14192.1376953125,14193.771484375
0.639939,1780552215.730749,97,2.1799983978271484,606.1004028320312,2.153303384780884,523.4031372070312,-0.0018878728151321411,0.25784462690353394,0.0014503533020615578,-0.9661835432052612,0.004703975282609463,2.474034309387207,0.02087606117129326,-0.18412159383296967,-0.6374945640563965,0.7946239113807678,0.47435271739959717,0.004400977864861488,0.0014684282941743731,-0.003426333423703909,1.0,0.0,1,14167.087890625,14156.3203125,14180.3046875,14185.390625
0.642175,1780552215.732985,97,2.1899983882904053,606.1004638671875,2.178663492202759,523.4033813476562,-0.001896150060929358,0.25777754187583923,0.001497646444477141,-0.9662013649940491,0.0050166891887784,2.536012649536133,0.02161954715847969,-0.049593735486269,-0.5492252111434937,0.7946240305900574,0.47435271739959717,0.004400977864861488,0.0014684282941743731,-0.003426333423703909,1.0,0.0,1,14165.6708984375,14149.8154296875,14172.9462890625,14172.9599609375
0.656575,1780552215.747386,97,2.199998378753662,606.1005249023438,2.204639434814453,523.4036254882812,-0.0018953332910314202,0.25771045684814453,0.0015404989244416356,-0.9662191867828369,0.0053436653688549995,2.597604751586914,0.022367747500538826,-0.13716444373130798,-0.47319546341896057,0.7946240305900574,0.47435271739959717,0.004400977864861488,0.0014684282941743731,-0.003426333423703909,1.0,0.0,1,14159.0205078125,14138.7685546875,14170.18359375,14165.818359375
0.658721,1780552215.749531,97,2.209998369216919,606.1005859375,2.2312276363372803,523.4038696289062,-0.0018915387336164713,0.25764334201812744,0.0015829770127311349,-0.9662370085716248,0.00568416528403759,2.6588099002838135,0.0231171865016222,-0.16902972757816315,-0.4602566659450531,0.7946240305900574,0.47435271739959717,0.004400977864861488,0.0014684282941743731,-0.003426333423703909,1.0,0.0,1,14151.8203125,14130.802734375,14164.4072265625,14159.291015625
0.673337,1780552215.764147,97,2.219998359680176,606.1006469726562,2.2584238052368164,523.404052734375,-0.0018867405597120523,0.25757622718811035,0.0016255370574072003,-0.9662548303604126,0.006038263440132141,2.719627857208252,0.0238668043166399,-0.18038302659988403,-0.4582003653049469,0.7946239113807678,0.47239863872528076,0.004400977864861488,0.0014684282941743731,-0.003426333423703909,1.0,0.0,1,14081.70703125,14060.5498046875,14094.8125,14089.572265625
0.689884,1780552215.780694,97,2.2299983501434326,606.1007080078125,2.2862167358398438,523.404296875,-0.0019331348594278097,0.25750917196273804,0.001676234183833003,-0.9662725329399109,0.0064043449237942696,2.779290199279785,0.024612801149487495,0.362429141998291,-0.6993995904922485,0.7946239709854126,0.46849048137664795,0.004400977864861488,0.0014684282941743731,-0.003426333423703909,1.0,0.0,1,13954.1259765625,13946.87890625,13943.1162109375,13951.8037109375
0.691995,1780552215.782805,97,2.2399983406066895,606.1007690429688,2.314587354660034,523.404541015625,-0.001984365051612258,0.25744208693504333,0.0017239190638065338,-0.9662901163101196,0.00677869888022542,2.83703875541687,0.025369208306074142,0.4248667061328888,-0.6803197860717773,0.7946239709854126,0.46849048137664795,0.004400977864861488,0.0014684282941743731,-0.003426333423703909,1.0,0.0,1,13949.49609375,13941.140625,13935.6982421875,13943.29296875
