t_rel,epoch,packet_bytes,sim_time,pos_x,pos_y,pos_z,att_x,att_y,att_z,att_w,vel_x,vel_y,vel_z,gyro_pitch,gyro_roll,gyro_yaw,in_throttle,in_yaw,in_pitch,in_roll,batt_voltage,batt_pct,armed,motor_0,motor_1,motor_2,motor_3
-0.341011,1780552155.641371,97,3.65999698638916,606.0999755859375,1.7123851776123047,523.4000854492188,-0.0007616442162543535,0.2607235610485077,0.00016646229778416455,-0.9654131531715393,5.541557402466424e-05,-2.7865171432495117e-05,-0.0001094881008611992,-0.19547894597053528,0.0065202293917536736,-0.04976547136902809,-0.9833903312683105,0.005378972738981247,0.0044052861630916595,-0.003426333423703909,1.0,0.0,1,1194.4605712890625,1194.4605712890625,1194.4605712890625,1194.4605712890625
-0.339325,1780552155.643056,97,3.669996976852417,606.0999755859375,1.7123850584030151,523.4000854492188,-0.000760926865041256,0.26071226596832275,0.00016860834148246795,-0.9654163122177124,4.647316745831631e-05,-2.769380807876587e-05,-0.00013941391080152243,-0.2106151282787323,0.017715446650981903,0.024158066138625145,-0.9833903312683105,0.005378972738981247,0.0044052861630916595,-0.003426333423703909,1.0,0.0,1,1194.4605712890625,1194.4605712890625,1194.4605712890625,1194.4605712890625
-0.324533,1780552155.657849,97,3.679996967315674,606.0999755859375,1.7123879194259644,523.4000854492188,-0.0007592601468786597,0.2607012391090393,0.00017005152767524123,-0.9654191732406616,3.583051875466481e-05,-4.544854164123535e-05,-0.00013441609917208552,-0.1922818273305893,0.02865869365632534,0.020635098218917847,-1.0,0.005378972738981247,0.0044052861630916595,-0.003426333423703909,1.0,0.0,1,1194.4605712890625,1194.4605712890625,1194.4605712890625,1194.4605712890625
-0.32324,1780552155.659142,97,3.6899969577789307,606.0999755859375,1.7123878002166748,523.4000854492188,-0.0007574660121463239,0.2606903612613678,0.00017057443619705737,-0.9654222130775452,4.0014998376136646e-05,-2.4870038032531738e-05,-0.0001457868202123791,-0.21499960124492645,0.03242404758930206,0.020002469420433044,-1.0,0.005378972738981247,0.0044052861630916595,-0.003426333423703909,1.0,0.0,1,1194.4605712890625,1194.4605712890625,1194.4605712890625,1194.4605712890625
-0.307892,1780552155.674489,97,3.6999969482421875,606.0999755859375,1.7123876810073853,523.4000854492188,-0.0007552485913038254,0.2606794834136963,0.00017075409414246678,-0.9654251337051392,3.787718742387369e-05,-2.3655593395233154e-05,-0.00014862176612950861,-0.2170093059539795,0.03773009777069092,0.01975357159972191,-1.0,0.005378972738981247,0.0044052861630916595,-0.003426333423703909,1.0,0.0,1,1194.4605712890625,1194.4605712890625,1194.4605712890625,1194.4605712890625
-0.291198,1780552155.691183,97,3.7099969387054443,606.0999755859375,1.7123875617980957,523.4000854492188,-0.0007529495633207262,0.26066863536834717,0.00017082419071812183,-0.9654280543327332,3.7460271414602175e-05,-2.3461878299713135e-05,-0.00014909231686033309,-0.21738922595977783,0.038745902478694916,0.019395310431718826,-1.0,0.005378972738981247,0.0044052861630916595,-0.003426333423703909,1.0,0.0,1,1194.4605712890625,1194.4605712890625,1194.4605712890625,1194.4605712890625
-0.290276,1780552155.692106,97,3.719996929168701,606.0999755859375,1.7123874425888062,523.4000854492188,-0.0007506362162530422,0.26065778732299805,0.00017087286687456071,-0.9654309749603271,3.7373007216956466e-05,-2.3417174816131592e-05,-0.00014918606029823422,-0.2174592912197113,0.03894489258527756,0.019341278821229935,-1.0,0.005378972738981247,0.0044052861630916595,-0.003426333423703909,1.0,0.0,1,1194.4605712890625,1194.4605712890625,1194.4605712890625,1194.4605712890625
-0.27443,1780552155.707952,97,3.729996919631958,606.0999755859375,1.7123873233795166,523.4000854492188,-0.0007483212393708527,0.2606469392776489,0.00017091751215048134,-0.9654338955879211,3.73520961147733e-05,-2.3417174816131592e-05,-0.00014921864203643054,-0.2174883633852005,0.03899342939257622,0.019338302314281464,-1.0,0.005378972738981247,0.0044052861630916595,-0.003426333423703909,1.0,0.0,1,1194.4605712890625,1194.4605712890625,1194.4605712890625,1194.4605712890625
-0.272962,1780552155.709419,97,3.739996910095215,606.0999755859375,1.712387204170227,523.4000854492188,-0.0007460059132426977,0.2606360912322998,0.00017096148803830147,-0.9654368162155151,3.7348305340856314e-05,-2.3417174816131592e-05,-0.00014922887203283608,-0.21749897301197052,0.03899860382080078,0.019344454631209373,-1.0,0.005378972738981247,0.0044052861630916595,-0.003426333423703909,1.0,0.0,1,1194.4605712890625,1194.4605712890625,1194.4605712890625,1194.4605712890625
-0.257931,1780552155.724451,97,3.7499969005584717,606.0999755859375,1.7123870849609375,523.4000854492188,-0.00074369041249156,0.2606252431869507,0.0001710064389044419,-0.9654397368431091,3.734978963620961e-05,-2.3417174816131592e-05,-0.000149238170706667,-0.21751190721988678,0.038995739072561264,0.01935529336333275,-1.0,0.005378972738981247,0.0044052861630916595,-0.003426333423703909,1.0,0.0,1,1194.4605712890625,1194.4605712890625,1194.4605712890625,1194.4605712890625
-0.24093,1780552155.741452,97,3.7599968910217285,606.0999755859375,1.712388277053833,523.4000854492188,-0.0007622219272889197,0.26061519980430603,0.00016580060764681548,-0.9654425382614136,-3.782977000810206e-05,-1.6167759895324707e-05,-7.222729618661106e-05,-0.05693911761045456,0.08594158291816711,0.031116334721446037,-1.0,0.005378972738981247,0.0044052861630916595,-0.003426333423703909,1.0,0.0,1,1194.4605712890625,1194.4605712890625,1194.4605712890625,1194.4605712890625
-0.239578,1780552155.742803,97,3.7699968814849854,606.0999755859375,1.7123881578445435,523.4000854492188,-0.0007626017322763801,0.26060420274734497,0.00016379235603380948,-0.9654453992843628,2.388796565355733e-05,-2.121180295944214e-05,-0.00013972283340990543,-0.19541174173355103,0.049986276775598526,0.020289616659283638,-1.0,0.005378972738981247,0.0044052861630916595,-0.003426333423703909,1.0,0.0,1,1194.4605712890625,1194.4605712890625,1194.4605712890625,1194.4605712890625
-0.224068,1780552155.758314,97,3.779996871948242,606.0999755859375,1.712388038635254,523.4000854492188,-0.0007606305880472064,0.26059338450431824,0.00016342333401553333,-0.9654483199119568,3.4920580219477415e-05,-2.291053533554077e-05,-0.00014810325228609145,-0.21436595916748047,0.04152996465563774,0.01908658817410469,-1.0,0.005378972738981247,0.0044052861630916595,-0.003426333423703909,1.0,0.0,1,1194.4605712890625,1194.4605712890625,1194.4605712890625,1194.4605712890625
-0.220572,1780552155.76181,97,3.789996862411499,606.0999755859375,1.7123879194259644,523.4000854492188,-0.0007583575206808746,0.2605825662612915,0.00016338574641849846,-0.9654512405395508,3.6916368117090315e-05,-2.3312866687774658e-05,-0.0001490666763857007,-0.21702347695827484,0.03949747979640961,0.019169820472598076,-1.0,0.005378972738981247,0.0044052861630916595,-0.003426333423703909,1.0,0.0,1,1194.4605712890625,1194.4605712890625,1194.4605712890625,1194.4605712890625
-0.188418,1780552155.793963,97,3.799996852874756,606.0999755859375,1.7123878002166748,523.4000854492188,-0.0007560459198430181,0.26057177782058716,0.00016341426817234606,-0.9654542803764343,3.728629235411063e-05,-2.339482307434082e-05,-0.00014917411317583174,-0.21741662919521332,0.03904814273118973,0.019238688051700592,-1.0,0.005378972738981247,0.0044052861630916595,-0.003426333423703909,1.0,0.0,1,1194.4605712890625,1194.4605712890625,1194.4605712890625,1194.4605712890625
-0.186848,1780552155.795533,97,3.8099968433380127,606.0999755859375,1.7123876810073853,523.4000854492188,-0.0007537308847531676,0.26056092977523804,0.0001634546060813591,-0.9654570817947388,3.733946869033389e-05,-2.3409724235534668e-05,-0.00014918505621608347,-0.21746300160884857,0.038970984518527985,0.019266799092292786,-1.0,0.005378972738981247,0.0044052861630916595,-0.003426333423703909,1.0,0.0,1,1194.4605712890625,1194.4605712890625,1194.4605712890625,1194.4605712890625
-0.185401,1780552155.79698,97,3.8199968338012695,606.0999755859375,1.7123875617980957,523.4000854492188,-0.000751414627302438,0.2605501413345337,0.0001634981599636376,-0.9654601216316223,3.7356723623815924e-05,-2.3417174816131592e-05,-0.00014919716340955347,-0.21749113500118256,0.03894750028848648,0.019279837608337402,-1.0,0.005378972738981247,0.0044052861630916595,-0.003426333423703909,1.0,0.0,1,1194.4605712890625,1194.4605712890625,1194.4605712890625,1194.4605712890625
-0.15702,1780552155.825361,97,3.8299968242645264,606.0999755859375,1.7123874425888062,523.4000854492188,-0.0007490990683436394,0.26053929328918457,0.00016354149556718767,-0.9654629230499268,3.7351168430177495e-05,-2.3417174816131592e-05,-0.00014920998364686966,-0.2175036519765854,0.03895799443125725,0.01928514614701271,-1.0,0.005378972738981247,0.0044052861630916595,-0.003426333423703909,1.0,0.0,1,1194.4605712890625,1194.4605712890625,1194.4605712890625,1194.4605712890625
-0.156186,1780552155.826196,97,3.839996814727783,606.0999755859375,1.7123873233795166,523.4000854492188,-0.0007467833929695189,0.26052844524383545,0.00016358574794139713,-0.9654658436775208,3.735049540409818e-05,-2.3417174816131592e-05,-0.00014921541151124984,-0.21750828623771667,0.038954854011535645,0.01929471082985401,-1.0,0.005378972738981247,0.0044052861630916595,-0.003426333423703909,1.0,0.0,1,1194.4605712890625,1194.4605712890625,1194.4605712890625,1194.4605712890625
-0.155371,1780552155.827011,97,3.84999680519104,606.0999755859375,1.712387204170227,523.4000854492188,-0.0007444682996720076,0.2605176270008087,0.00016362957831006497,-0.9654688835144043,3.7348079786170274e-05,-2.3417174816131592e-05,-0.00014922430273145437,-0.21751876175403595,0.038956474512815475,0.019304487854242325,-1.0,0.005378972738981247,0.0044052861630916595,-0.003426333423703909,1.0,0.0,1,1194.4605712890625,1194.4605712890625,1194.4605712890625,1194.4605712890625
-0.140101,1780552155.842281,97,3.859996795654297,606.0999755859375,1.712388038635254,523.4000854492188,-0.0007649419130757451,0.26050910353660583,0.0001739031431498006,-0.9654711484909058,7.64991418691352e-05,-6.225705146789551e-05,-2.1452578948810697e-05,-0.08283279836177826,-0.11221834272146225,0.016686299815773964,-1.0,0.005378972738981247,0.0044052861630916595,-0.003426333423703909,1.0,0.0,1,1194.4605712890625,1194.4605712890625,1194.4605712890625,1194.4605712890625
-0.139107,1780552155.843275,97,3.8699967861175537,606.0999755859375,1.7123878002166748,523.4000854492188,-0.0007665570010431111,0.2604968845844269,0.00017676256538834423,-0.9654744267463684,4.551828533294611e-05,-2.9034912586212158e-05,-0.00012938128202222288,-0.19526398181915283,0.009396461769938469,0.03203704208135605,-1.0,0.005378972738981247,0.0044052861630916595,-0.003426333423703909,1.0,0.0,1,1194.4605712890625,1194.4605712890625,1194.4605712890625,1194.4605712890625
-0.123425,1780552155.858957,97,3.8799967765808105,606.0999755859375,1.7123876810073853,523.4000854492188,-0.0007648427854292095,0.26048582792282104,0.00017732236301526427,-0.9654774069786072,3.901000673067756e-05,-2.4393200874328613e-05,-0.00014606033801101148,-0.2142210602760315,0.03372657299041748,0.02138613909482956,-1.0,0.005378972738981247,0.0044052861630916595,-0.003426333423703909,1.0,0.0,1,1194.4605712890625,1194.4605712890625,1194.4605712890625,1194.4605712890625
-0.122479,1780552155.859902,97,3.8899967670440674,606.0999755859375,1.7123875617980957,523.4000854492188,-0.0007626203005202115,0.26047495007514954,0.00017746197408996522,-0.9654803276062012,3.7685447750845924e-05,-2.3595988750457764e-05,-0.00014868314610794187,-0.21700309216976166,0.03797966241836548,0.01963549107313156,-1.0,0.005378972738981247,0.0044052861630916595,-0.003426333423703909,1.0,0.0,1,1194.4605712890625,1194.4605712890625,1194.4605712890625,1194.4605712890625
-0.106565,1780552155.875817,97,3.899996757507324,606.0999755859375,1.7123874425888062,523.4000854492188,-0.0007603193516843021,0.2604641020298004,0.00017752469284459949,-0.9654832482337952,3.741793261724524e-05,-2.3446977138519287e-05,-0.00014911129255779088,-0.2174195945262909,0.038737744092941284,0.019355082884430885,-1.0,0.005378972738981247,0.0044052861630916595,-0.003426333423703909,1.0,0.0,1,1194.4605712890625,1194.4605712890625,1194.4605712890625,1194.4605712890625
-0.0899,1780552155.892482,97,3.909996747970581,606.0999755859375,1.7123873233795166,523.4000854492188,-0.0007580065866932273,0.2604532539844513,0.00017757283058017492,-0.9654861688613892,3.735729114850983e-05,-2.3424625396728516e-05,-0.00014918472152203321,-0.21747903525829315,0.038881685584783554,0.019314538687467575,-1.0,0.005378972738981247,0.0044052861630916595,-0.003426333423703909,1.0,0.0,1,1194.4605712890625,1194.4605712890625,1194.4605712890625,1194.4605712890625
-0.088496,1780552155.893886,97,3.919996738433838,606.0999755859375,1.712387204170227,523.4000854492188,-0.000755692133679986,0.2604424059391022,0.00017761869821697474,-0.9654890894889832,3.735246355063282e-05,-2.3417174816131592e-05,-0.0001492124138167128,-0.21751618385314941,0.03890520706772804,0.01930810511112213,-1.0,0.005378972738981247,0.0044052861630916595,-0.003426333423703909,1.0,0.0,1,1194.4605712890625,1194.4605712890625,1194.4605712890625,1194.4605712890625
-0.073194,1780552155.909188,97,3.9299967288970947,606.0999755859375,1.7123870849609375,523.4000854492188,-0.000753377506043762,0.26043155789375305,0.00017766434757504612,-0.9654920101165771,3.734725760295987e-05,-2.3417174816131592e-05,-0.0001492185692768544,-0.21751852333545685,0.03890877217054367,0.019315971061587334,-1.0,0.005378972738981247,0.0044052861630916595,-0.003426333423703909,1.0,0.0,1,1194.4605712890625,1194.4605712890625,1194.4605712890625,1194.4605712890625
-0.072058,1780552155.910324,97,3.9399967193603516,606.0999755859375,1.712386965751648,523.4000854492188,-0.0007510634604841471,0.26042070984840393,0.0001777084544301033,-0.9654949307441711,3.733230187208392e-05,-2.3417174816131592e-05,-0.00014922866830602288,-0.21751949191093445,0.038928836584091187,0.019327489659190178,-1.0,0.005378972738981247,0.0044052861630916595,-0.003426333423703909,1.0,0.0,1,1194.4605712890625,1194.4605712890625,1194.4605712890625,1194.4605712890625
-0.056712,1780552155.925669,97,3.9499967098236084,606.0999755859375,1.7123873233795166,523.4000854492188,-0.0007468053372576833,0.26040831208229065,0.00016227157902903855,-0.9654982686042786,-7.699170237174258e-05,2.2687017917633057e-05,-0.0002000029053306207,-0.19170522689819336,0.2370794415473938,0.033720072358846664,-1.0,0.005378972738981247,0.0044052861630916595,-0.003426333423703909,1.0,0.0,1,1194.4605712890625,1194.4605712890625,1194.4605712890625,1194.4605712890625
-0.039976,1780552155.942406,97,3.9599967002868652,606.0999755859375,1.7123873233795166,523.4000854492188,-0.000743254495318979,0.2603987753391266,0.00015744897245895118,-0.9655009508132935,1.571053871884942e-05,-1.5594065189361572e-05,-0.00015957154391799122,-0.21771234273910522,0.07946574687957764,0.007551608607172966,-1.0,0.005378972738981247,0.0044052861630916595,-0.003426333423703909,1.0,0.0,1,1194.4605712890625,1194.4605712890625,1194.4605712890625,1194.4605712890625
-0.038921,1780552155.943461,97,3.969996690750122,606.0999755859375,1.7123881578445435,523.4000854492188,-0.0007634719368070364,0.2603904902935028,0.00016679328109603375,-0.9655031561851501,7.241133425850421e-05,-6.0774385929107666e-05,-2.3508036974817514e-05,-0.08299470692873001,-0.10447148978710175,0.014372567646205425,-1.0,0.005378972738981247,0.0044052861630916595,-0.003426333423703909,1.0,0.0,1,1194.4605712890625,1194.4605712890625,1194.4605712890625,1194.4605712890625
-0.023368,1780552155.959013,97,3.979996681213379,606.0999755859375,1.7123879194259644,523.4000854492188,-0.0007650346960872412,0.26037830114364624,0.00016947474796324968,-0.9655063152313232,4.473780427360907e-05,-2.8736889362335205e-05,-0.00012977821461390704,-0.1953209489583969,0.010844937525689602,0.03156245872378349,-1.0,0.005378972738981247,0.0044052861630916595,-0.003426333423703909,1.0,0.0,1,1194.4605712890625,1194.4605712890625,1194.4605712890625,1194.4605712890625
-0.022471,1780552155.95991,97,3.9899966716766357,606.0999755859375,1.7123878002166748,523.4000854492188,-0.0007633113418705761,0.2603672742843628,0.0001700003631412983,-0.9655094146728516,3.886078411596827e-05,-2.434849739074707e-05,-0.00014612494851462543,-0.21423834562301636,0.03396209329366684,0.021266350522637367,-1.0,0.005378972738981247,0.0044052861630916595,-0.003426333423703909,1.0,0.0,1,1194.4605712890625,1194.4605712890625,1194.4605712890625,1194.4605712890625
-0.006674,1780552155.975708,97,3.9999966621398926,606.0999755859375,1.7123876810073853,523.4000854492188,-0.0007610877510160208,0.2603563964366913,0.0001701329747447744,-0.9655123353004456,3.764955545193516e-05,-2.358853816986084e-05,-0.00014868246216792613,-0.21700213849544525,0.0379914864897728,0.019586211070418358,-0.9814362525939941,0.005378972738981247,0.0044052861630916595,-0.003426333423703909,1.0,0.0,1,1194.4605712890625,1194.4605712890625,1194.4605712890625,1194.4605712890625
0.009961,1780552155.992342,97,4.0099968910217285,606.0999755859375,1.7123875617980957,523.4000854492188,-0.0007591229514218867,0.2603455185890198,0.0001708089985186234,-0.9655152559280396,4.002622517873533e-05,-2.44826078414917e-05,-0.00014669263327959925,-0.21604536473751068,0.03311413526535034,0.02021518163383007,-0.9491939544677734,0.005378972738981247,0.0044052861630916595,-0.003426333423703909,1.0,0.0,1,1194.4605712890625,1194.4605712890625,1194.4605712890625,1194.4605712890625
0.010952,1780552155.993333,97,4.0199971199035645,606.0999755859375,1.7123874425888062,523.4000854492188,-0.0007572149042971432,0.2603346109390259,0.00017159768322017044,-0.9655181765556335,4.048519258503802e-05,-2.467632293701172e-05,-0.00014633809041697532,-0.2158510386943817,0.032123878598213196,0.02054722234606743,-0.9491939544677734,0.005378972738981247,0.0044052861630916595,-0.003426333423703909,1.0,0.0,1,1194.4605712890625,1194.4605712890625,1194.4605712890625,1194.4605712890625
0.026814,1780552156.009196,97,4.0299973487854,606.0999755859375,1.7123873233795166,523.4000854492188,-0.0007553171599283814,0.2603236734867096,0.00017240847228094935,-0.9655210971832275,4.05764440074563e-05,-2.4713575839996338e-05,-0.00014628900680691004,-0.21584099531173706,0.03193741291761398,0.020614275708794594,-0.8729848265647888,0.005378972738981247,0.0044052861630916595,-0.003426333423703909,1.0,0.0,1,1194.4605712890625,1194.4605712890625,1194.4605712890625,1194.4605712890625
0.027914,1780552156.010295,97,4.039997577667236,606.0999755859375,1.712387204170227,523.4000854492188,-0.0007534349570050836,0.2603127658367157,0.00017324971850030124,-0.9655241370201111,4.0701343095861375e-05,-2.4765729904174805e-05,-0.00014618918066844344,-0.21579225361347198,0.03167236968874931,0.02067483589053154,-0.8729848265647888,0.005378972738981247,0.0044052861630916595,-0.003426333423703909,1.0,0.0,1,1194.4605712890625,1194.4605712890625,1194.4605712890625,1194.4605712890625
0.043291,1780552156.025672,97,4.049997806549072,606.0999755859375,1.7123870849609375,523.4000854492188,-0.0007515553152188659,0.2603018283843994,0.00017409729480277747,-0.9655270576477051,4.072809679200873e-05,-2.477318048477173e-05,-0.00014617768465541303,-0.21579261124134064,0.0316137969493866,0.02070031501352787,-0.7713727355003357,0.005378972738981247,0.0044052861630916595,-0.003426333423703909,1.0,0.0,1,1194.4605712890625,1194.4605712890625,1194.4605712890625,1194.4605712890625
0.060049,1780552156.04243,97,4.059998035430908,606.0999755859375,1.712386965751648,523.4000854492188,-0.0007497297483496368,0.26029089093208313,0.0001750466035446152,-0.9655300378799438,4.115805495530367e-05,-2.4944543838500977e-05,-0.00014580086281057447,-0.21558961272239685,0.030701346695423126,0.020862089470028877,-0.7205666899681091,0.005378972738981247,0.0044052861630916595,-0.003426333423703909,1.0,0.0,1,1194.4605712890625,1194.4605712890625,1194.4605712890625,1194.4605712890625
0.060884,1780552156.043266,97,4.069998264312744,606.0999755859375,1.7123868465423584,523.4000854492188,-0.0007479637861251831,0.26027989387512207,0.00017610708891879767,-0.9655328989028931,4.16225848312024e-05,-2.5138258934020996e-05,-0.00014538882533088326,-0.2153528332710266,0.029699767008423805,0.02106865495443344,-0.7205666899681091,0.005378972738981247,0.0044052861630916595,-0.003426333423703909,1.0,0.0,1,1194.4605712890625,1194.4605712890625,1194.4605712890625,1194.4605712890625
0.076761,1780552156.059142,97,4.07999849319458,606.0999755859375,1.7123870849609375,523.4000854492188,-0.0007442639325745404,0.26026737689971924,0.00016170840535778552,-0.9655362963676453,-7.26206781109795e-05,2.092123031616211e-05,-0.0001960915105883032,-0.18954703211784363,0.22767414152622223,0.035529494285583496,-0.6482657790184021,0.005378972738981247,0.0044052861630916595,-0.003426333423703909,1.0,0.0,1,1194.4605712890625,1194.4605712890625,1194.4605712890625,1194.4605712890625
0.078323,1780552156.060705,97,4.089998722076416,606.0999755859375,1.7123879194259644,523.4000854492188,-0.0007641749689355493,0.2602599859237671,0.00016834994312375784,-0.9655382633209229,6.0101090639363974e-05,-5.654245615005493e-05,-2.7085377951152623e-05,-0.08028160035610199,-0.08289498835802078,0.0070120589807629585,-0.6482657790184021,0.005378972738981247,0.0044052861630916595,-0.003426333423703909,1.0,0.0,1,1194.4605712890625,1194.4605712890625,1194.4605712890625,1194.4605712890625
0.093301,1780552156.075682,97,4.099998950958252,606.0999755859375,1.7123876810073853,523.4000854492188,-0.0007662256830371916,0.2602478563785553,0.00017154731904156506,-0.9655415415763855,4.6752975322306156e-05,-2.9690563678741455e-05,-0.00012662867084145546,-0.19268855452537537,0.00564310047775507,0.03193110227584839,-0.6101611852645874,0.005378972738981247,0.0044052861630916595,-0.003426333423703909,1.0,0.0,1,1194.4605712890625,1194.4605712890625,1194.4605712890625,1194.4605712890625
0.109956,1780552156.092337,97,4.109999179840088,606.0999755859375,1.7123875617980957,523.4000854492188,-0.0007652278291061521,0.2602366805076599,0.00017333451251033694,-0.965544581413269,4.414758586790413e-05,-2.650916576385498e-05,-0.00014111063501331955,-0.211215540766716,0.022427210584282875,0.02333546243607998,-0.5720566511154175,0.005378972738981247,0.0044052861630916595,-0.003426333423703909,1.0,0.0,1,1194.4605712890625,1194.4605712890625,1194.4605712890625,1194.4605712890625
0.110791,1780552156.093173,97,4.119999408721924,606.0999755859375,1.7123874425888062,523.4000854492188,-0.0007638621027581394,0.26022565364837646,0.00017502733680885285,-0.9655475616455078,4.422313941176981e-05,-2.6226043701171875e-05,-0.00014270874089561403,-0.21355484426021576,0.023824643343687057,0.022248312830924988,-0.5720566511154175,0.005378972738981247,0.0044052861630916595,-0.003426333423703909,1.0,0.0,1,1194.4605712890625,1194.4605712890625,1194.4605712890625,1194.4605712890625
0.126692,1780552156.109074,97,4.12999963760376,606.0999755859375,1.7123873233795166,523.4000854492188,-0.0007624459685757756,0.260214626789093,0.0001767071953509003,-0.9655505418777466,4.4223215809324756e-05,-2.6188790798187256e-05,-0.00014295117580331862,-0.21388843655586243,0.024028928950428963,0.022144317626953125,-0.5368832349777222,0.005378972738981247,0.0044052861630916595,-0.003426333423703909,1.0,0.0,1,1194.4605712890625,1194.4605712890625,1194.4605712890625,1194.4605712890625
0.127813,1780552156.110195,97,4.139999866485596,606.0999755859375,1.712387204170227,523.4000854492188,-0.0007611099281348288,0.26020359992980957,0.0001785500644473359,-0.9655535221099854,4.4927710405318066e-05,-2.6464462280273438e-05,-0.0001423579960828647,-0.2135901302099228,0.022562222555279732,0.022375546395778656,-0.5368832349777222,0.005378972738981247,0.0044052861630916595,-0.003426333423703909,1.0,0.0,1,1194.4605712890625,1194.4605712890625,1194.4605712890625,1194.4605712890625
0.143533,1780552156.125915,97,4.150000095367432,606.0999755859375,1.712386965751648,523.4000854492188,-0.0007601610850542784,0.26019251346588135,0.00017985492013394833,-0.9655565023422241,3.9957507397048175e-05,-2.8640031814575195e-05,-0.00014077257947064936,-0.20714934170246124,0.028121553361415863,0.022790253162384033,-0.46360528469085693,0.005378972738981247,0.0044052861630916595,-0.003426333423703909,1.0,0.0,1,1194.4605712890625,1194.4605712890625,1194.4605712890625,1194.4605712890625
0.160146,1780552156.142528,97,4.160000324249268,606.0999755859375,1.7123867273330688,523.4000854492188,-0.0007595040369778872,0.2601814270019531,0.0001813989074435085,-0.9655594825744629,4.0788807382341474e-05,-2.9109418392181396e-05,-0.00013908302935305983,-0.2055053412914276,0.025630248710513115,0.023189479485154152,-0.3991206884384155,0.005378972738981247,0.0044052861630916595,-0.003426333423703909,1.0,0.0,1,1194.4605712890625,1194.4605712890625,1194.4605712890625,1194.4605712890625
0.161151,1780552156.143532,97,4.1700005531311035,606.0999755859375,1.7123864889144897,523.4000854492188,-0.0007591403555124998,0.2601702809333801,0.00018343832925893366,-0.9655624628067017,4.285434624762274e-05,-2.997368574142456e-05,-0.00013709347695112228,-0.2042696177959442,0.0211038775742054,0.024042712524533272,-0.3991206884384155,0.005378972738981247,0.0044052861630916595,-0.003426333423703909,1.0,0.0,1,1194.4605712890625,1194.4605712890625,1194.4605712890625,1194.4605712890625
0.176768,1780552156.15915,97,4.1800007820129395,606.0999755859375,1.712385654449463,523.4000244140625,-0.0008788520935922861,0.2604322135448456,0.00020261267491150647,-0.9654917120933533,0.00044892390724271536,-9.103119373321533e-05,-0.0018100118031725287,-3.0912342071533203,1.279081106185913,-2.1047017574310303,-0.31704938411712646,0.005378972738981247,0.0044052861630916595,-0.003426333423703909,1.0,0.0,1,1448.863525390625,1194.4605712890625,1343.1058349609375,1509.1722412109375
0.178694,1780552156.161076,97,4.190001010894775,606.0999755859375,1.7123870849609375,523.4000854492188,-0.0005593528621830046,0.26048019528388977,0.00012256398622412235,-0.9654791355133057,-5.764493835158646e-05,-7.486343383789062e-05,0.001884719356894493,2.416760206222534,-1.2543672323226929,0.22063547372817993,-0.31704938411712646,0.005378972738981247,0.0044052861630916595,-0.003426333423703909,1.0,0.0,1,1395.6575927734375,1352.8941650390625,1256.458984375,1361.8702392578125
0.193446,1780552156.175828,97,4.200001239776611,606.0999755859375,1.7123873233795166,523.4000854492188,-0.0007585227722302079,0.260461688041687,0.00016042700735852122,-0.9654839038848877,-2.1432668290799484e-05,-0.0006001666188240051,0.0009580842452123761,1.3296411037445068,-0.776238203048706,0.14977224171161652,-0.21836835145950317,0.005378972738981247,0.0044052861630916595,-0.003426333423703909,1.0,0.0,1,1811.467529296875,1736.2012939453125,1712.3333740234375,1797.461181640625
0.210016,1780552156.192398,97,4.210001468658447,606.0999755859375,1.7123868465423584,523.4000854492188,-0.0007937803748063743,0.2604413628578186,0.00017369631677865982,-0.965489387512207,5.066881567472592e-05,-5.630403757095337e-05,2.7640489861369133e-05,0.01857035420835018,-0.13631287217140198,0.10880815982818604,-0.15876895189285278,0.005378972738981247,0.0044052861630916595,-0.003426333423703909,1.0,0.0,1,2096.0634765625,1981.93994140625,2049.08251953125,2102.41845703125
0.210937,1780552156.193319,97,4.220001697540283,606.0999755859375,1.712388277053833,523.4000854492188,-0.0007787744980305433,0.2604278028011322,0.0001859476324170828,-0.9654930233955383,0.00012719791266135871,-6.310641765594482e-05,-0.0001718222047202289,-0.3094901740550995,-0.07525496184825897,0.028656555339694023,-0.15876895189285278,0.005378972738981247,0.0044052861630916595,-0.003426333423703909,1.0,0.0,1,2094.23779296875,1969.8326416015625,2054.279541015625,2111.15625
0.227636,1780552156.210018,97,4.230001926422119,606.0999755859375,1.7123887538909912,523.4000854492188,-0.0007719671120867133,0.260414183139801,0.00017616082914173603,-0.9654967188835144,1.8195714801549911e-07,-1.290440559387207e-05,-0.00018597260350361466,-0.23620747029781342,0.11323661357164383,0.025486405938863754,-0.1245725154876709,0.005378972738981247,0.0044052861630916595,-0.003426333423703909,1.0,0.0,1,2281.944091796875,2146.860595703125,2238.599853515625,2285.344970703125
0.229268,1780552156.21165,97,4.240002155303955,606.0999755859375,1.712389349937439,523.4000854492188,-0.0007653568172827363,0.2604016065597534,0.00016182572289835662,-0.9655001163482666,-2.1774931155960076e-05,-6.0498714447021484e-06,-0.00018958572763949633,-0.22697478532791138,0.14848600327968597,0.016362983733415604,-0.1245725154876709,0.005378972738981247,0.0044052861630916595,-0.003426333423703909,1.0,0.0,1,2283.505615234375,2145.689453125,2238.982421875,2284.568603515625
0.249688,1780552156.23207,97,4.250002384185791,606.0999755859375,1.7123860120773315,523.4000854492188,-0.0007647524471394718,0.2603912055492401,0.00016430890536867082,-0.965502917766571,4.775441266247071e-05,-0.00033283233642578125,-0.00013691172352991998,-0.2086956650018692,0.015378393232822418,0.019516563042998314,-0.10503172874450684,0.005378972738981247,0.0044052861630916595,-0.003426333423703909,1.0,0.0,1,2387.54541015625,2257.349853515625,2342.518310546875,2395.1796875
0.254845,1780552156.237226,97,4.260002613067627,606.0999755859375,1.7123857736587524,523.4000854492188,-0.0007656966336071491,0.260379821062088,0.00017012745956890285,-0.9655059576034546,6.167004903545603e-05,-3.3251941204071045e-05,-0.00012655633327085525,-0.20412079989910126,-0.013557562604546547,0.02861473150551319,-0.10503172874450684,0.005378972738981247,0.0044052861630916595,-0.003426333423703909,1.0,0.0,1,2386.42041015625,2258.605712890625,2341.983154296875,2395.457763671875
0.274244,1780552156.256626,97,4.270002841949463,606.0999755859375,1.7123855352401733,523.4000854492188,-0.0007669412880204618,0.2603682279586792,0.00017664370534475893,-0.9655090570449829,6.461219163611531e-05,-3.441423177719116e-05,-0.0001245369203388691,-0.2032594084739685,-0.019605839625000954,0.030467649921774864,-0.06790423393249512,0.005378972738981247,0.0044052861630916595,-0.003426333423703909,1.0,0.0,1,2598.468017578125,2471.14697265625,2554.15380859375,2607.802490234375
0.275464,1780552156.257845,97,4.280003070831299,606.0999755859375,1.7123852968215942,523.4000854492188,-0.0007685146993026137,0.2603565752506256,0.00018380158871877939,-0.965512216091156,6.733233749400824e-05,-3.550201654434204e-05,-0.00012221484212204814,-0.20200732350349426,-0.025354305282235146,0.03161248937249184,-0.06790423393249512,0.005378972738981247,0.0044052861630916595,-0.003426333423703909,1.0,0.0,1,2598.28662109375,2471.381591796875,2554.01806640625,2607.88525390625
0.307407,1780552156.289788,97,4.290003299713135,606.0999755859375,1.7123857736587524,523.4000854492188,-0.0007641208358108997,0.26034286618232727,0.00017343902436550707,-0.9655159115791321,-5.601410521194339e-06,-1.2837350368499756e-05,-0.00017586526519153267,-0.21878761053085327,0.11315374076366425,0.027080820873379707,-0.0317537784576416,0.005378972738981247,0.0044052861630916595,-0.003426333423703909,1.0,0.0,1,2818.849365234375,2683.907958984375,2774.90283203125,2821.51513671875
0.308583,1780552156.290965,97,4.300003528594971,606.0999755859375,1.7123855352401733,523.4000854492188,-0.0007645664736628532,0.2603321373462677,0.00017789955018088222,-0.9655188322067261,5.604280886473134e-05,-3.1016767024993896e-05,-0.0001295522233704105,-0.20501409471035004,-0.0021754452027380466,0.023526949808001518,-0.0317537784576416,0.005378972738981247,0.0044052861630916595,-0.003426333423703909,1.0,0.0,1,2816.114013671875,2687.232421875,2771.27587890625,2824.56103515625
0.309604,1780552156.291986,97,4.310003757476807,606.0999755859375,1.7123851776123047,523.4000854492188,-0.0007662805146537721,0.2603205442428589,0.0001851879496825859,-0.9655219316482544,6.786480662412941e-05,-3.5740435123443604e-05,-0.00012120775500079617,-0.20115651190280914,-0.026759639382362366,0.031392455101013184,-0.0317537784576416,0.005378972738981247,0.0044052861630916595,-0.003426333423703909,1.0,0.0,1,2815.1787109375,2688.33251953125,2770.855224609375,2824.819091796875
0.310516,1780552156.292897,97,4.320003986358643,606.0999755859375,1.712385654449463,523.4000854492188,-0.0007621911936439574,0.26030683517456055,0.000175369787029922,-0.96552574634552,-3.310968168079853e-06,-1.3768672943115234e-05,-0.00017373531591147184,-0.21753951907157898,0.10820016264915466,0.02796171046793461,-0.0317537784576416,0.005378972738981247,0.0044052861630916595,-0.003426333423703909,1.0,0.0,1,2818.701416015625,2684.109375,2774.77783203125,2821.58740234375
0.324673,1780552156.307055,97,4.3300042152404785,606.0999755859375,1.7123854160308838,523.4000854492188,-0.0007626937585882843,0.2602960169315338,0.00017994549125432968,-0.9655285477638245,5.65121736144647e-05,-3.120303153991699e-05,-0.00012920172594022006,-0.20483174920082092,-0.003189805196598172,0.023868637159466743,0.01905226707458496,0.005378972738981247,0.0044052861630916595,-0.003426333423703909,1.0,0.0,1,3306.162109375,3177.36572265625,3261.345703125,3314.6572265625
0.340676,1780552156.323057,97,4.3400044441223145,606.0999755859375,1.7123850584030151,523.4000854492188,-0.000765035452786833,0.26028433442115784,0.0001884016237454489,-0.9655317068099976,7.28342856746167e-05,-3.7707388401031494e-05,-0.00011670233652694151,-0.19860896468162537,-0.037353456020355225,0.03314962238073349,0.035661935806274414,0.005378972738981247,0.0044052861630916595,-0.003426333423703909,1.0,0.0,1,3571.2412109375,3445.131591796875,3526.961181640625,3581.358154296875
0.34141,1780552156.323792,97,4.35000467300415,606.0999755859375,1.712388515472412,523.4000854492188,-0.0007620009710080922,0.2602703869342804,0.00018053637177217752,-0.9655354619026184,-3.6116616684012115e-06,-3.6228448152542114e-05,-0.00015645779785700142,-0.18962012231349945,0.09419338405132294,0.030740754678845406,0.035661935806274414,0.005378972738981247,0.0044052861630916595,-0.003426333423703909,1.0,0.0,1,3575.16650390625,3441.587158203125,3530.296630859375,3577.64013671875
0.357334,1780552156.339716,97,4.360004901885986,606.0999755859375,1.712388277053833,523.4000854492188,-0.0007639985997229815,0.26025933027267456,0.0001870467240223661,-0.9655384421348572,6.409190245904028e-05,-3.464147448539734e-05,-0.00011958252434851602,-0.19714348018169403,-0.021754205226898193,0.027878547087311745,0.05520272254943848,0.005378972738981247,0.0044052861630916595,-0.003426333423703909,1.0,0.0,1,3899.922119140625,3772.49658203125,3855.125,3909.115478515625
0.358149,1780552156.34053,97,4.370005130767822,606.0999755859375,1.7123879194259644,523.4000854492188,-0.0007673674263060093,0.2602474093437195,0.00019729393534362316,-0.965541660785675,8.027986768865958e-05,-4.078075289726257e-05,-0.00010943949746433645,-0.19395725429058075,-0.053832683712244034,0.036574430763721466,0.05520272254943848,0.005378972738981247,0.0044052861630916595,-0.003426333423703909,1.0,0.0,1,3898.730224609375,3773.8251953125,3854.547607421875,3909.55908203125
0.374223,1780552156.356605,97,4.380005359649658,606.0999755859375,1.7123887538909912,523.4000854492188,-0.0007630354957655072,0.26023173332214355,0.00017515290528535843,-0.9655458927154541,-0.00010434772411826998,2.695620059967041e-05,-0.00021231378195807338,-0.1845911592245102,0.2776448130607605,0.04802677780389786,0.0952613353729248,0.005378972738981247,0.0044052861630916595,-0.003426333423703909,1.0,0.0,1,4629.5498046875,4487.33447265625,4585.95703125,4621.68310546875
0.390885,1780552156.373267,97,4.390005588531494,606.0999755859375,1.712388515472412,523.4000854492188,-0.0007649291073903441,0.2602217197418213,0.0001796915748855099,-0.965548574924469,5.529164627660066e-05,-3.158301115036011e-05,-0.0001207397217513062,-0.19397856295108795,-0.006594558712095022,0.02018859051167965,0.13043475151062012,0.005378972738981247,0.0044052861630916595,-0.003426333423703909,1.0,0.0,1,5311.291015625,5182.36572265625,5265.6962890625,5319.513671875
0.391883,1780552156.374264,97,4.40000581741333,606.0999755859375,1.712388038635254,523.4000854492188,-0.0007700801943428814,0.2602096498012543,0.00019284184963908046,-0.9655518531799316,9.244066313840449e-05,-4.57763671875e-05,-9.701785893412307e-05,-0.1859867423772812,-0.08067455142736435,0.040621351450681686,0.13043475151062012,0.005378972738981247,0.0044052861630916595,-0.003426333423703909,1.0,0.0,1,5308.53662109375,5185.46240234375,5264.3642578125,5320.5087890625
0.407595,1780552156.389977,97,4.410006046295166,606.0999755859375,1.7123883962631226,523.4000854492188,-0.0007698534172959626,0.2601950764656067,0.0001900528877740726,-0.9655557870864868,2.6269546651747078e-05,-2.5723129510879517e-05,-0.00014651585661340505,-0.20146390795707703,0.044323187321424484,0.040266815572977066,0.17440152168273926,0.005378972738981247,0.0044052861630916595,-0.003426333423703909,1.0,0.0,1,6243.40380859375,6113.3984375,6199.8583984375,6249.13330078125
0.408716,1780552156.391098,97,4.420006275177002,606.0999755859375,1.7123887538909912,523.4000854492188,-0.0007698303670622408,0.2601812183856964,0.00018583286146167666,-0.9655595421791077,1.771193819877226e-05,-2.6457011699676514e-05,-0.00014544719306286424,-0.19428101181983948,0.05678229779005051,0.03536238893866539,0.17440152168273926,0.005378972738981247,0.0044052861630916595,-0.003426333423703909,1.0,0.0,1,6244.11181640625,6112.99560546875,6199.83837890625,6248.84814453125
0.424015,1780552156.406397,97,4.430006504058838,606.0999755859375,1.7123891115188599,523.4000854492188,-0.0007698652916587889,0.2601674497127533,0.00018127195653505623,-0.9655632376670837,1.600381983735133e-05,-2.5955960154533386e-05,-0.00014552367792930454,-0.19327521324157715,0.05932961031794548,0.034788187593221664,0.2173912525177002,0.005378972738981247,0.0044052861630916595,-0.003426333423703909,1.0,0.0,1,7230.07666015625,7098.7705078125,7185.7109375,7234.62939453125
0.440724,1780552156.423106,97,4.440006732940674,606.0999755859375,1.7123864889144897,523.4000854492188,-0.0007711826474405825,0.26015353202819824,0.0001789607631508261,-0.9655669927597046,-2.3805296223144978e-05,-0.00027227774262428284,-0.0001697199186310172,-0.18825691938400269,0.1377185881137848,0.06147969886660576,0.2506105899810791,0.005378972738981247,0.0044052861630916595,-0.003426333423703909,1.0,0.0,1,8042.3095703125,7908.978515625,8000.0322265625,8042.322265625
0.441487,1780552156.423868,97,4.45000696182251,606.0999755859375,1.7123886346817017,523.4000854492188,-0.0007493697921745479,0.2601284384727478,0.0001861622731667012,-0.965573787689209,1.1468984666862525e-05,5.5901939049363136e-05,2.854350896086544e-06,-0.3566131293773651,-0.04430032894015312,0.3756386637687683,0.2506105899810791,0.005378972738981247,0.0044052861630916595,-0.003426333423703909,1.0,0.0,1,8020.12548828125,7923.9296875,8012.08740234375,8037.3369140625
0.457331,1780552156.439712,97,4.460007190704346,606.0999755859375,1.7123897075653076,523.4000854492188,-0.0007577765500172973,0.2600633502006531,0.00021648069377988577,-0.965591311454773,8.170340151991695e-06,0.00010148841101909056,0.00017081708938349038,0.0023556281812489033,-0.361044704914093,0.7721540331840515,0.2818758487701416,0.005378972738981247,0.0044052861630916595,-0.003426333423703909,1.0,0.0,1,8803.232421875,8758.7119140625,8814.1376953125,8822.681640625
0.458338,1780552156.440719,97,4.470007419586182,606.0999755859375,1.7124990224838257,523.4000854492188,-0.0008162218146026134,0.2599814236164093,0.00024640545598231256,-0.9656133055686951,1.1030270798073616e-05,0.010906674899160862,0.0003592164139263332,0.557115375995636,-0.5059431791305542,0.9718747735023499,0.2818758487701416,0.005378972738981247,0.0044052861630916595,-0.003426333423703909,1.0,0.0,1,8801.0888671875,8781.7841796875,8805.6533203125,8804.974609375
0.474053,1780552156.456435,97,4.480007648468018,606.0999755859375,1.712715983390808,523.4000854492188,-0.0008816367480903864,0.2598994970321655,0.00027215751470066607,-0.9656352996826172,1.7179776477860287e-05,0.021671272814273834,0.0005628980579786003,0.6466665863990784,-0.4805355668067932,0.971874475479126,0.31509530544281006,0.005378972738981247,0.0044052861630916595,-0.003426333423703909,1.0,0.0,1,9692.5791015625,9671.8681640625,9693.3388671875,9691.2578125
0.490682,1780552156.473063,97,4.4900078773498535,606.0999755859375,1.7131609916687012,523.4000244140625,-0.000939025660045445,0.25981757044792175,0.0002945027663372457,-0.9656572937965393,2.6037570933112875e-05,0.04448184370994568,0.0008054880890995264,0.5680024027824402,-0.4189346432685852,0.9718745946884155,0.34440648555755615,0.005378972738981247,0.0044052861630916595,-0.003426333423703909,1.0,0.0,1,10506.9873046875,10482.8662109375,10511.0908203125,10505.60546875
0.491528,1780552156.47391,97,4.5000081062316895,606.0999755859375,1.7139441967010498,523.4000244140625,-0.0010353508405387402,0.259735643863678,0.00032260772422887385,-0.9656792283058167,3.7558667827397585e-05,0.07828907668590546,0.0010858040768653154,0.9817084074020386,-0.5985944271087646,0.9718746542930603,0.34440648555755615,0.005378972738981247,0.0044052861630916595,-0.003426333423703909,1.0,0.0,1,10506.8251953125,10492.62109375,10493.337890625,10497.779296875
0.507576,1780552156.489957,97,4.510008335113525,606.0999755859375,1.7150641679763794,523.4000244140625,-0.001147294184193015,0.2596536874771118,0.00034065579529851675,-0.9657010436058044,4.969506699126214e-05,0.11194649338722229,0.0013943815138190985,1.1844711303710938,-0.5337916612625122,0.9718746542930603,0.37664878368377686,0.005378972738981247,0.0044052861630916595,-0.003426333423703909,1.0,0.0,1,11440.201171875,11422.4052734375,11418.0791015625,11418.939453125
0.509169,1780552156.49155,97,4.520008563995361,606.0999755859375,1.716645359992981,523.4000244140625,-0.001263357582502067,0.25957176089286804,0.0003648085112217814,-0.965722918510437,5.931730993324891e-05,0.15806972980499268,0.0017648900393396616,1.211899757385254,-0.6136049628257751,0.971874475479126,0.37664878368377686,0.005378972738981247,0.0044052861630916595,-0.003426333423703909,1.0,0.0,1,11433.25390625,11419.8623046875,11409.9482421875,11415.2255859375
0.524042,1780552156.506424,97,4.530008792877197,606.0999755859375,1.718685507774353,523.4000244140625,-0.0013803517213091254,0.25948983430862427,0.00038958172081038356,-0.9657447934150696,6.685199332423508e-05,0.20396451652050018,0.002171426312997937,1.2203537225723267,-0.6232401132583618,0.9718746542930603,0.40889108180999756,0.005378972738981247,0.0044052861630916595,-0.003426333423703909,1.0,0.0,1,12390.79296875,12377.9248046875,12367.109375,12372.9248046875
0.540745,1780552156.523126,97,4.540009021759033,606.0999755859375,1.7213122844696045,523.4000244140625,-0.0014747042441740632,0.2594079077243805,0.00040991351124830544,-0.9657666683197021,7.289151108125225e-05,0.2626457214355469,0.002651534043252468,0.9829949736595154,-0.5067633390426636,0.9718745946884155,0.4225696325302124,0.005378972738981247,0.0044052861630916595,-0.003426333423703909,1.0,0.0,1,12799.7802734375,12780.4443359375,12786.1982421875,12785.5634765625
0.542901,1780552156.525282,97,4.550009250640869,606.0999755859375,1.7245789766311646,523.4000854492188,-0.001549218432046473,0.2593259811401367,0.0004284209571778774,-0.9657885432243347,7.749109499854967e-05,0.32664206624031067,0.0031801387667655945,0.7688685059547424,-0.42760169506073,0.9718745946884155,0.4225696325302124,0.005378972738981247,0.0044052861630916595,-0.003426333423703909,1.0,0.0,1,12790.306640625,12766.5576171875,12785.853515625,12780.82421875
0.557443,1780552156.539825,97,4.560009479522705,606.0999755859375,1.7284820079803467,523.400146484375,-0.001617485424503684,0.25924405455589294,0.00044772293767891824,-0.9658104181289673,8.162407903000712e-05,0.3902650475502014,0.003733998164534569,0.6973690390586853,-0.4178304672241211,0.9718745946884155,0.43917930126190186,0.005378972738981247,0.0044052861630916595,-0.003426333423703909,1.0,0.0,1,13295.6787109375,13271.3623046875,13294.27734375,13288.69921875
0.559326,1780552156.541708,97,4.570009708404541,606.0999755859375,1.733086347579956,523.4002075195312,-0.0016833471599966288,0.2591620981693268,0.0004669603076763451,-0.9658322930335999,8.629878720967099e-05,0.4604150652885437,0.004334142431616783,0.6709423065185547,-0.40997061133384705,0.9718745946884155,0.43917930126190186,0.005378972738981247,0.0044052861630916595,-0.003426333423703909,1.0,0.0,1,13287.6640625,13262.8837890625,13287.3916015625,13281.3701171875
0.574241,1780552156.556622,97,4.580009937286377,606.0999755859375,1.7383877038955688,523.4002685546875,-0.0017528642201796174,0.259080171585083,0.0004752848471980542,-0.9658541679382324,9.154994768323377e-05,0.530112087726593,0.004957153461873531,0.7438063025474548,-0.30004647374153137,0.9718745946884155,0.47142159938812256,0.005378972738981247,0.0044052861630916595,-0.003426333423703909,1.0,0.0,1,14301.408203125,14270.4794921875,14298.013671875,14285.865234375
0.590892,1780552156.573273,97,4.590010166168213,606.0999755859375,1.7445178031921387,523.4003295898438,-0.0018333105836063623,0.25899821519851685,0.0004941994557157159,-0.9658759832382202,9.342118573840708e-05,0.6129778027534485,0.005652623251080513,0.8333311080932617,-0.4497039318084717,0.971874475479126,0.47142159938812256,0.005378972738981247,0.0044052861630916595,-0.003426333423703909,1.0,0.0,1,14290.4423828125,14267.814453125,14283.203125,14279.3818359375
0.592778,1780552156.57516,97,4.600010395050049,606.0999755859375,1.751470685005188,523.400390625,-0.0019166764104738832,0.2589162588119507,0.0005140384892001748,-0.965897798538208,9.436173422727734e-05,0.6952555179595947,0.006377388257533312,0.8629005551338196,-0.4686008095741272,0.9718745946884155,0.47142159938812256,0.005378972738981247,0.0044052861630916595,-0.003426333423703909,1.0,0.0,1,14281.8720703125,14260.2705078125,14273.3525390625,14270.58203125
0.607521,1780552156.589903,97,4.610010623931885,606.0999755859375,1.7592402696609497,523.4004516601562,-0.0020008923020213842,0.2588343024253845,0.0005338646005839109,-0.9659196138381958,9.4434610218741e-05,0.7769197821617126,0.007132307160645723,0.8723475337028503,-0.4709797501564026,0.9718746542930603,0.47435271739959717,0.005378972738981247,0.0044052861630916595,-0.003426333423703909,1.0,0.0,1,14367.0673828125,14345.568359375,14358.1298828125,14355.48828125
0.609285,1780552156.591667,97,4.620010852813721,606.0999755859375,1.7678325176239014,523.4005126953125,-0.002085363259539008,0.25875234603881836,0.0005535764503292739,-0.9659413695335388,9.355681686429307e-05,0.8591936826705933,0.007922534830868244,0.8755098581314087,-0.4704718589782715,0.9718747735023499,0.47435271739959717,0.005378972738981247,0.0044052861630916595,-0.003426333423703909,1.0,0.0,1,14358.4619140625,14336.908203125,14349.3779296875,14346.7041015625
0.624029,1780552156.60641,97,4.630011081695557,606.0999755859375,1.7772407531738281,523.4005737304688,-0.0021555752027779818,0.2586703598499298,0.0005710189579986036,-0.9659630656242371,9.167248208541423e-05,0.9407950043678284,0.008742819540202618,0.7244097590446472,-0.4030745327472687,0.9718746542930603,0.4909623861312866,0.005378972738981247,0.0044052861630916595,-0.003426333423703909,1.0,0.0,1,14883.0888671875,14857.728515625,14880.5087890625,14874.0537109375
0.640756,1780552156.623138,97,4.640011310577393,606.0999755859375,1.7875288724899292,523.4006958007812,-0.002206138800829649,0.25858840346336365,0.0005860282108187675,-0.9659848809242249,8.927799353841692e-05,1.0287832021713257,0.009618942625820637,0.5141305923461914,-0.3178991377353668,0.971874475479126,0.4909623861312866,0.005378972738981247,0.0044052861630916595,-0.003426333423703909,1.0,0.0,1,14871.8291015625,14841.65234375,14878.32421875,14867.08203125
0.642358,1780552156.624739,97,4.6500115394592285,606.0999755859375,1.7986890077590942,523.4007568359375,-0.0022553491871804,0.2585064768791199,0.0005895812646485865,-0.9660066962242126,8.75234545674175e-05,1.1159930229187012,0.010512037202715874,0.5330986976623535,-0.18707551062107086,0.9718745946884155,0.4909623861312866,0.005378972738981247,0.0044052861630916595,-0.003426333423703909,1.0,0.0,1,14866.8564453125,14829.2822265625,14872.541015625,14853.9287109375
0.657628,1780552156.640009,97,4.6600117683410645,606.0999755859375,1.8107134103775024,523.40087890625,-0.0023633958771824837,0.2584245204925537,0.0006008167401887476,-0.9660283923149109,8.22145157144405e-05,1.2023978233337402,0.011420127004384995,1.1616395711898804,-0.4464072287082672,0.9718745946884155,0.49487054347991943,0.005378972738981247,0.0044052861630916595,-0.003426333423703909,1.0,0.0,1,14990.9208984375,14967.8896484375,14969.3935546875,14965.3515625
0.659259,1780552156.641641,97,4.6700119972229,606.0999755859375,1.8236101865768433,523.4010009765625,-0.002485550008714199,0.25834253430366516,0.0006221819203346968,-0.9660500288009644,7.024880324024707e-05,1.2896350622177124,0.01237395778298378,1.2878104448318481,-0.6003199219703674,0.9718745946884155,0.49487054347991943,0.005378972738981247,0.0044052861630916595,-0.003426333423703909,1.0,0.0,1,14980.2763671875,14965.8876953125,14953.2470703125,14957.8740234375
0.674109,1780552156.65649,97,4.680012226104736,606.0999755859375,1.8373706340789795,523.401123046875,-0.0025969683192670345,0.2582605481147766,0.0006420079153031111,-0.9660716652870178,5.413985491031781e-05,1.376001000404358,0.013371565379202366,1.1735204458236694,-0.5514983534812927,0.971874475479126,0.49877870082855225,0.005378972738981247,0.0044052861630916595,-0.003426333423703909,1.0,0.0,1,15097.3349609375,15080.1708984375,15075.2314453125,15077.109375
0.690799,1780552156.673181,97,4.690012454986572,606.0999755859375,1.8520023822784424,523.4012451171875,-0.002705009188503027,0.2581785321235657,0.0006620712811127305,-0.9660931825637817,3.426827606745064e-05,1.4631277322769165,0.014417046681046486,1.1354316473007202,-0.5441327691078186,0.9718746542930603,0.5026868581771851,0.005378972738981247,0.0044052861630916595,-0.003426333423703909,1.0,0.0,1,15215.1611328125,15197.5576171875,15194.6826171875,15196.1455078125
0.693016,1780552156.675398,97,4.700012683868408,606.0999755859375,1.867512583732605,523.4014282226562,-0.00281198020093143,0.2580965757369995,0.0006822636933065951,-0.96611487865448,1.1051368346670642e-05,1.550973653793335,0.015509242191910744,1.1232013702392578,-0.5423937439918518,0.9718743562698364,0.5026868581771851,0.005378972738981247,0.0044052861630916595,-0.003426333423703909,1.0,0.0,1,15205.87109375,15188.142578125,15185.8955078125,15187.263671875
0.707421,1780552156.689803,97,4.710012912750244,606.0999755859375,1.8838913440704346,523.401611328125,-0.00290376297198236,0.2580145597457886,0.0007002248312346637,-0.9661363959312439,-1.5143594282562844e-05,1.6378425359725952,0.016638249158859253,0.9616570472717285,-0.4727732241153717,0.9718748927116394,0.5046409368515015,0.005378972738981247,0.0044052861630916595,-0.003426333423703909,1.0,0.0,1,15259.23046875,15237.5302734375,15246.271484375,15243.6943359375
0.709458,1780552156.691839,97,4.72001314163208,606.0999755859375,1.9011369943618774,523.4017944335938,-0.0029807009268552065,0.2579326033592224,0.0007040941272862256,-0.9661580324172974,-4.3705771531676874e-05,1.7245334386825562,0.017802443355321884,0.8389700651168823,-0.2728677988052368,0.9718745946884155,0.5046409368515015,0.005378972738981247,0.0044052861630916595,-0.003426333423703909,1.0,0.0,1,15253.24609375,15220.1669921875,15245.62890625,15231.7001953125
0.724122,1780552156.706503,97,4.730013370513916,606.0999755859375,1.9192391633987427,523.4019775390625,-0.003048527054488659,0.25785061717033386,0.0007186444127000868,-0.9661797285079956,-7.831829134374857e-05,1.8101907968521118,0.0189894437789917,0.7065192461013794,-0.36418983340263367,0.9718743562698364,0.5065950155258179,0.005378972738981247,0.0044052861630916595,-0.003426333423703909,1.0,0.0,1,15302.8818359375,15274.947265625,15301.0458984375,15292.2890625
0.740845,1780552156.723227,97,4.740013599395752,606.0999755859375,1.9381954669952393,523.4021606445312,-0.0031078483443707228,0.25776857137680054,0.0007474145386368036,-0.9662014245986938,-0.00011412675667088479,1.8956091403961182,0.02020154893398285,0.5703409314155579,-0.4964989423751831,0.9718747735023499,0.5065950155258179,0.005378972738981247,0.0044052861630916595,-0.003426333423703909,1.0,0.0,1,15287.263671875,15266.822265625,15291.3896484375,15290.15234375
0.742443,1780552156.724825,97,4.750013828277588,606.0999755859375,1.957995057106018,523.4024047851562,-0.0031635730993002653,0.2576865255832672,0.0007788894581608474,-0.9662231206893921,-0.00014476481010206044,1.9799392223358154,0.021431470289826393,0.522530734539032,-0.5158226490020752,0.9718743562698364,0.5065950155258179,0.005378972738981247,0.0044052861630916595,-0.003426333423703909,1.0,0.0,1,15276.8720703125,15257.50390625,15283.1015625,15282.96484375
0.757446,1780552156.739827,97,4.760014057159424,606.0999755859375,1.9786269664764404,523.4026489257812,-0.0032324441708624363,0.2576044499874115,0.0008132354123517871,-0.9662447571754456,-0.0001689062628429383,2.0631587505340576,0.02267768792808056,0.6596107482910156,-0.586431086063385,0.9718743562698364,0.5065950155258179,0.005378972738981247,0.0044052861630916595,-0.003426333423703909,1.0,0.0,1,15269.1650390625,15253.798828125,15269.3818359375,15273.2744140625
0.759278,1780552156.74166,97,4.77001428604126,606.0999755859375,2.00007963180542,523.4028930664062,-0.003291140077635646,0.2575224041938782,0.000845104455947876,-0.966266393661499,-0.00018684811948332936,2.1452460289001465,0.02394494041800499,0.5542586445808411,-0.5289689898490906,0.9718746542930603,0.5065950155258179,0.005378972738981247,0.0044052861630916595,-0.003426333423703909,1.0,0.0,1,15259.884765625,15241.2138671875,15264.7353515625,15265.349609375
0.774052,1780552156.756433,97,4.780014514923096,606.0999755859375,2.022341728210449,523.4031372070312,-0.003346485085785389,0.25744032859802246,0.0008770445128902793,-0.9662880301475525,-0.0001985635608434677,2.2261803150177,0.025228723883628845,0.5169463157653809,-0.5198670029640198,0.971874475479126,0.5075720548629761,0.005378972738981247,0.0044052861630916595,-0.003426333423703909,1.0,0.0,1,15282.923828125,15263.7080078125,15289.4248046875,15289.5185546875
0.790849,1780552156.773231,97,4.790014743804932,606.0999755859375,2.045405387878418,523.4033813476562,-0.003405342111364007,0.2573583126068115,0.0008973297080956399,-0.966309666633606,-0.00020377303007990122,2.306342601776123,0.026530131697654724,0.590219259262085,-0.40117403864860535,0.971874475479126,0.49682462215423584,0.005378972738981247,0.007342143449932337,-0.003426333423703909,1.0,0.0,1,14914.0400390625,14887.9951171875,14943.4345703125,14936.7255859375
0.792865,1780552156.775247,97,4.800014972686768,606.0999755859375,2.0692150592803955,523.4036865234375,-0.0034930845722556114,0.257276326417923,0.0009086045902222395,-0.9663311839103699,-0.00020705952192656696,2.3809285163879395,0.027815265581011772,0.9366468787193298,-0.3865883946418762,0.971874475479126,0.49682462215423584,0.005378972738981247,0.007342143449932337,-0.003426333423703909,1.0,0.0,1,14914.0849609375,14887.1708984375,14928.220703125,14920.6650390625
0.807472,1780552156.789854,97,4.8100152015686035,606.0999755859375,2.0937588214874268,523.4039306640625,-0.003586697392165661,0.25719431042671204,0.0009283111430704594,-0.966352641582489,-0.00021451633074320853,2.454348087310791,0.029123783111572266,0.9767945408821106,-0.4972638189792633,0.9718745946884155,0.46262824535369873,0.005378972738981247,0.0592266283929348,-0.003426333423703909,1.0,0.0,1,13556.5126953125,13535.9248046875,14049.9443359375,14048.740234375
0.808905,1780552156.791287,97,4.8200154304504395,606.0999755859375,2.118891716003418,523.4042358398438,-0.004211416468024254,0.25711265206336975,0.0008249692618846893,-0.9663719534873962,-0.0002229604433523491,2.5129683017730713,0.03035712242126465,7.220792293548584,-0.6999764442443848,0.9718745946884155,0.46262824535369873,0.005378972738981247,0.0592266283929348,-0.003426333423703909,1.0,0.0,1,13681.94140625,13672.9921875,13899.5517578125,13910.0048828125
0.824108,1780552156.806489,97,4.830015659332275,606.0999755859375,2.1446008682250977,523.404541015625,-0.005002930294722319,0.25703105330467224,0.0006694844923913479,-0.9663899540901184,-0.0003191939613316208,2.570542097091675,0.0317767970263958,9.22153377532959,-0.61399245262146,0.9718745946884155,0.4294089078903198,0.005378972738981247,0.07684776932001114,-0.003426333423703909,1.0,0.0,1,12586.0576171875,12572.150390625,12887.3671875,12892.8798828125
0.840734,1780552156.823116,97,4.840015888214111,606.0999755859375,2.170750617980957,523.40478515625,-0.0060074422508478165,0.25694945454597473,0.00044674795935861766,-0.9664061665534973,-0.000517403066623956,2.6145052909851074,0.03330428898334503,11.778459548950195,-0.4966144263744354,0.971874475479126,0.41279923915863037,0.005378972738981247,0.11502692103385925,-0.003426333423703909,1.0,0.0,1,11932.0283203125,11911.3486328125,12509.2529296875,12508.0078125
0.842103,1780552156.824485,97,4.850016117095947,606.1000366210938,2.197277545928955,523.4050903320312,-0.007492549251765013,0.25686752796173096,0.00010794932313729078,-0.9664175510406494,-0.0008480229880660772,2.6519296169281006,0.03503742441534996,17.4427433013916,-0.6264445781707764,0.9718747735023499,0.41279923915863037,0.005378972738981247,0.11502692103385925,-0.003426333423703909,1.0,0.0,1,12049.1875,12035.978515625,12375.541015625,12381.7783203125
0.857479,1780552156.83986,97,4.860016345977783,606.10009765625,2.224177360534668,523.4053955078125,-0.00915823969990015,0.2567850351333618,-0.00028527670656330884,-0.9664251804351807,-0.001388738164678216,2.689121961593628,0.037167876958847046,19.603111267089844,-0.555295467376709,0.9718747735023499,0.3825110197067261,0.005378972738981247,0.13166911900043488,-0.003426333423703909,1.0,0.0,1,11088.62890625,11071.30859375,11496.2724609375,11498.41015625
0.858997,1780552156.841378,97,4.870016574859619,606.10009765625,2.2513368129730225,523.4057006835938,-0.011080377735197544,0.2567017674446106,-0.0007701456779614091,-0.9664269089698792,-0.0021095839329063892,2.714914321899414,0.03954612836241722,22.71340560913086,-0.29507163166999817,0.971874475479126,0.3825110197067261,0.005378972738981247,0.13166911900043488,-0.003426333423703909,1.0,0.0,1,11161.876953125,11129.533203125,11431.5986328125,11418.7216796875
0.874044,1780552156.856425,97,4.880016803741455,606.10009765625,2.2787535190582275,523.406005859375,-0.013084773905575275,0.25661709904670715,-0.001250564819201827,-0.9664238095283508,-0.0030932349618524313,2.7405433654785156,0.042396146804094315,23.611909866333008,-0.5864582061767578,0.9718746542930603,0.3659013509750366,0.005378972738981247,0.16593246161937714,-0.003426333423703909,1.0,0.0,1,10489.28125,10473.744140625,11098.5634765625,11102.501953125
0.890902,1780552156.873283,97,4.890017032623291,606.10009765625,2.306367874145508,523.4063720703125,-0.015513891354203224,0.2565305233001709,-0.0018424976151436567,-0.9664098620414734,-0.004289016593247652,2.7600345611572266,0.04559165611863136,28.6450138092041,-0.6005811095237732,0.9718742370605469,0.34929168224334717,0.005378972738981247,0.1855114996433258,-0.003426333423703909,1.0,0.0,1,10002.771484375,9988.044921875,10614.8515625,10619.6064453125
0.893391,1780552156.875773,97,4.900017261505127,606.10009765625,2.3341197967529297,523.40673828125,-0.018327660858631134,0.2564413547515869,-0.002536407206207514,-0.9663827419281006,-0.005728702060878277,2.7735326290130615,0.049187853932380676,33.206939697265625,-0.6021844744682312,0.971874475479126,0.34929168224334717,0.005378972738981247,0.1855114996433258,-0.003426333423703909,1.0,0.0,1,10102.314453125,10087.6767578125,10511.78125,10516.630859375
